name,lat,lng,category
邱診所,24.7952548,120.9608496,home_based_medical.csv
實和診所,24.8055565,120.9672309,home_based_medical.csv
羅興邦家庭醫學科診所,24.7984951,120.9707645,home_based_medical.csv
啟恩小兒科診所,24.8103031,120.9777744,home_based_medical.csv
億安診所,24.8077194,120.977124,home_based_medical.csv
陳萬龍診所,24.8161962,120.9657802,home_based_medical.csv
南門綜合醫院,24.8021381,120.969653,home_based_medical.csv
吳憲一內科小兒科診所,24.79638,120.96934,home_based_medical.csv
吳廷臣診所,24.8085542,120.9738448,home_based_medical.csv
陳志宏眼科診所,24.8044381,120.97171,home_based_medical.csv
張益豪耳鼻喉專科診所,24.7847352,121.0156988,home_based_medical.csv
陳志成耳鼻喉科診所,24.8098486,120.9587551,home_based_medical.csv
國泰醫療財團法人新竹國泰綜合醫院,24.798276,120.9652857,home_based_medical.csv
瀚華診所,24.8990156,120.9868449,home_based_medical.csv
平安診所,24.7723961,121.0834496,home_based_medical.csv
羅內科小兒科診所,24.7373469,121.0877473,home_based_medical.csv
安慎診所,24.7357188,121.0915124,home_based_medical.csv
瑞麟診所,24.8386449,121.0112251,home_based_medical.csv
祁詮診所,24.901441,121.043725,home_based_medical.csv
橫山庄診所,24.7189467,121.1156715,home_based_medical.csv
永杏小兒科診所,24.8663616,120.9925629,home_based_medical.csv
林鴻欣皮膚科診所,24.8742295,120.9945916,home_based_medical.csv
民安診所,24.763197,120.98693,home_based_medical.csv
康健診所,24.7253318,121.0891804,home_based_medical.csv
劉信志診所,24.8305972,121.0150632,home_based_medical.csv
哈佛診所,24.7944266,121.1761147,home_based_medical.csv
謝小兒科內科診所,24.7920397,121.1761902,home_based_medical.csv
仁和復健科診所,24.8306179,121.0150991,home_based_medical.csv
日康診所,24.8141887,121.0242597,home_based_medical.csv
艾兒診所,24.8144805,121.0284035,home_based_medical.csv
創意診所,24.901441,121.043725,home_based_medical.csv
關心眼科診所,24.7930159,121.178118,home_based_medical.csv
高平堂藥局,24.7926489,121.1760999,home_based_medical.csv
呂紹達內科診所,24.7378112,121.087348,home_based_medical.csv
曾文怡診所,24.8401147,121.002049,home_based_medical.csv
健安婦產科診所,24.8724628,120.9992909,home_based_medical.csv
有田診所,24.7911108,121.1762813,home_based_medical.csv
杏安診所,24.8610818,120.9640339,home_based_medical.csv
朱先營診所,24.9025677,121.044927,home_based_medical.csv
柯介仁診所,24.9015496,121.0471035,home_based_medical.csv
傅仁良小兒科診所,24.8323885,121.0057584,home_based_medical.csv
啄木鳥耳鼻喉科診所,24.8225319,121.0248748,home_based_medical.csv
沛群耳鼻喉專科診所,24.8401022,121.0024671,home_based_medical.csv
王伯堅診所,24.830536,121.0163953,home_based_medical.csv
常春中醫診所,24.798223,120.970198,home_based_medical.csv
葉治威外科診所,24.7369777,121.0880357,home_based_medical.csv
曾文智診所,24.8401147,121.002049,home_based_medical.csv
常榮中醫診所,24.801331,120.960846,home_based_medical.csv
科理中醫診所,24.797355,120.974106,home_based_medical.csv
均安中醫診所,24.8706111,120.9936823,home_based_medical.csv
張嘉榮診所,24.8339502,120.998262,home_based_medical.csv
國立臺灣大學醫學院附設醫院新竹生醫園區分院,24.8057313,121.0446077,home_based_medical.csv
天主教仁慈醫療財團法人仁慈醫院,24.9004859,121.0455461,home_based_medical.csv
朱內科診所,24.7941264,121.1761927,home_based_medical.csv
和平診所,24.7358992,121.0892247,home_based_medical.csv
李克隆小兒科診所,24.8331935,120.9996756,home_based_medical.csv
嘉樂泰千診所,24.7073605,121.2043544,home_based_medical.csv
倪耳鼻喉科診所,24.8043324,120.9717168,home_based_medical.csv
蘇銘煜診所,24.7822089,121.0189519,home_based_medical.csv
城佑耳鼻喉科診所,24.8016351,120.9950074,home_based_medical.csv
曾政德婦產科外科診所,24.7413134,121.0856101,home_based_medical.csv
彥涵復健科診所,24.8998782,121.0432524,home_based_medical.csv
新竹縣五峰鄉衛生所,24.6316629,121.1192785,home_based_medical.csv
懷恩中醫診所,24.7918311,121.1770684,home_based_medical.csv
天安中醫診所,24.8366872,121.0086359,home_based_medical.csv
黃耳鼻喉科診所,24.7858866,121.0115331,home_based_medical.csv
漢杰小兒科診所,24.80042,120.967911,home_based_medical.csv
新竹縣關西鎮衛生所,24.7917656,121.1726305,home_based_medical.csv
盧廷圳中醫診所,24.9011494,121.0464611,home_based_medical.csv
上上中醫診所,24.8713834,120.9953619,home_based_medical.csv
欣安診所,24.7866218,121.0095623,home_based_medical.csv
國立臺灣大學醫學院附設醫院新竹分院,24.8174645,120.9799468,home_based_medical.csv
小太陽耳鼻喉科診所,24.798272,120.9970816,home_based_medical.csv
晨心兒科診所,24.8083382,120.9726291,home_based_medical.csv
陳吳坤骨科診所,24.8138224,120.9670335,home_based_medical.csv
謝承霖兒童診所,24.8067422,120.9755303,home_based_medical.csv
欣欣診所,24.7814155,121.022765,home_based_medical.csv
蕭子青小兒科診所,24.8109091,120.980745,home_based_medical.csv
東元醫療社團法人東元綜合醫院,24.82365,121.013754,home_based_medical.csv
康德診所,24.78414,121.016004,home_based_medical.csv
元培健康診所,24.7762377,120.9407615,home_based_medical.csv
竹信醫院,24.734258,121.090935,home_based_medical.csv
國軍新竹地區醫院附設民眾診療服務處,24.8161603,120.96212,home_based_medical.csv
大安醫院,24.8347547,121.0081372,home_based_medical.csv
新竹縣尖石鄉衛生所,24.7057501,121.2023556,home_based_medical.csv
台灣基督長老教會馬偕醫療財團法人新竹馬偕紀念醫院,24.8000704,120.9907507,home_based_medical.csv
健和藥局,24.8073052,120.9668155,home_based_medical.csv
新仁醫院,24.8356902,121.0078165,home_based_medical.csv
長福診所,24.805818,120.9561861,home_based_medical.csv
黃瑞耳鼻喉科診所,24.8044906,120.9649892,hsinchu_modern_clinic.csv
莊士易內科心臟內科診所(英群莊聯合診所),24.8014159,120.9607182,hsinchu_modern_clinic.csv
英群莊皮膚科診所(英群莊聯合診所),24.8014159,120.9607182,hsinchu_modern_clinic.csv
實和診所,24.8055565,120.9672309,hsinchu_modern_clinic.csv
張錚小兒科診所,24.814099,120.962592,hsinchu_modern_clinic.csv
台安耳鼻喉科診所,24.8018078,120.9599935,hsinchu_modern_clinic.csv
健群耳鼻喉科診所,24.8059862,120.9660444,hsinchu_modern_clinic.csv
祥仁內科診所,24.7969453,120.9634278,hsinchu_modern_clinic.csv
祐庭耳鼻喉科診所,24.8182001,120.9716713,hsinchu_modern_clinic.csv
蕭子青小兒科診所,24.8109091,120.980745,hsinchu_modern_clinic.csv
蔡坤榮診所,24.808236,120.961151,hsinchu_modern_clinic.csv
陳萬龍診所,24.8161962,120.9657802,hsinchu_modern_clinic.csv
惠生婦產科診所,24.8222359,120.9588203,hsinchu_modern_clinic.csv
陳建銘婦產科診所,24.8200763,120.9702383,hsinchu_modern_clinic.csv
簡志澔小兒科診所,24.8045212,120.9560224,hsinchu_modern_clinic.csv
大鵬復健科診所,24.812015,120.964066,hsinchu_modern_clinic.csv
陳吳坤骨科診所,24.8138224,120.9670335,hsinchu_modern_clinic.csv
丁眼科診所,24.8158873,120.9630663,hsinchu_modern_clinic.csv
陳君毅小兒科診所,24.8100751,120.959111,hsinchu_modern_clinic.csv
江婦產科診所,24.8083186,120.9777376,hsinchu_modern_clinic.csv
廖明厚小兒科診所,24.8080814,120.9776948,hsinchu_modern_clinic.csv
永美陳志閔診所,24.808147,120.9778017,hsinchu_modern_clinic.csv
謝承霖兒童診所,24.8067422,120.9755303,hsinchu_modern_clinic.csv
羅啟華整形外科診所,24.807506,120.9763771,hsinchu_modern_clinic.csv
林啟銘內科小兒科診所,24.8067855,120.9759387,hsinchu_modern_clinic.csv
和平婦產科診所,24.8051881,120.9685275,hsinchu_modern_clinic.csv
郭榮暉診所,24.8066877,120.966999,hsinchu_modern_clinic.csv
慈暉內科小兒科診所,24.8042141,120.9646538,hsinchu_modern_clinic.csv
葉冠東婦產科診所,24.8027581,120.962196,hsinchu_modern_clinic.csv
吳國治眼科診所,24.8055877,120.9689307,hsinchu_modern_clinic.csv
安慎診所,24.8069698,120.9709025,hsinchu_modern_clinic.csv
永堅眼科診所,24.808515,120.9737324,hsinchu_modern_clinic.csv
彭耳鼻喉科診所,24.8086728,120.9736061,hsinchu_modern_clinic.csv
能清安欣診所,24.8089652,120.9749983,hsinchu_modern_clinic.csv
石銘煌診所,24.8043335,120.9691805,hsinchu_modern_clinic.csv
楊耳鼻喉科診所,24.812587,120.963679,hsinchu_modern_clinic.csv
邊子揚診所,24.8130941,120.963345,hsinchu_modern_clinic.csv
吳雨圭診所,24.8045658,120.9699456,hsinchu_modern_clinic.csv
成美整形外科診所,24.8046339,120.9698489,hsinchu_modern_clinic.csv
深潭耳鼻喉科診所,24.8046592,120.9698579,hsinchu_modern_clinic.csv
陳志鴻泌尿科診所,24.8054601,120.9693111,hsinchu_modern_clinic.csv
長庚婦產科診所,24.8038696,120.9746974,hsinchu_modern_clinic.csv
吳振福眼科診所,24.800404,120.969157,hsinchu_modern_clinic.csv
陳兆英內科心臟科診所,24.797806,120.9650082,hsinchu_modern_clinic.csv
林安復耳鼻喉科診所,24.8068398,120.9796459,hsinchu_modern_clinic.csv
大學眼科診所,24.8051463,120.9712749,hsinchu_modern_clinic.csv
莊峻鏞內科診所,24.8018873,120.966152,hsinchu_modern_clinic.csv
蘇育賢小兒科診所,24.8018712,120.9661086,hsinchu_modern_clinic.csv
王皮膚科診所,24.8020849,120.9666279,hsinchu_modern_clinic.csv
趙永康小兒科診所,24.8117878,120.9710746,hsinchu_modern_clinic.csv
闕弘昌復健科診所,24.8130677,120.9731204,hsinchu_modern_clinic.csv
邱國華耳鼻喉科診所,24.8124107,120.9720373,hsinchu_modern_clinic.csv
李文華診所,24.8118911,120.9755146,hsinchu_modern_clinic.csv
林冠賢皮膚科診所,24.8086948,120.9787172,hsinchu_modern_clinic.csv
曾鼎昌整形外科診所,24.8101144,120.9809103,hsinchu_modern_clinic.csv
杏春內科小兒科診所,24.8084998,120.9622981,hsinchu_modern_clinic.csv
葉佳全小兒科診所,24.8103267,120.9732941,hsinchu_modern_clinic.csv
英慈耳鼻喉科診所,24.7955864,120.9986416,hsinchu_modern_clinic.csv
送子鳥診所,24.8028345,120.9915232,hsinchu_modern_clinic.csv
興世紀婦產科診所,24.7829031,121.01907,hsinchu_modern_clinic.csv
黃耳鼻喉科診所,24.7858866,121.0115331,hsinchu_modern_clinic.csv
林正弘小兒科診所,24.8147825,120.974362,hsinchu_modern_clinic.csv
羅世樑診所,24.81479,120.972289,hsinchu_modern_clinic.csv
慈佑小兒科診所,24.7910206,120.9646957,hsinchu_modern_clinic.csv
吳憲一內科小兒科診所,24.79638,120.96934,hsinchu_modern_clinic.csv
張內科小兒科診所,24.7972471,120.9696365,hsinchu_modern_clinic.csv
簡小兒科內科診所,24.8022227,120.965642,hsinchu_modern_clinic.csv
永錫外科診所,24.8033456,120.9642433,hsinchu_modern_clinic.csv
蔡景銓內科小兒科診所,24.80566,120.9625914,hsinchu_modern_clinic.csv
楊進樑婦產科診所,24.803865,120.971731,hsinchu_modern_clinic.csv
徐文錦眼科診所,24.8060649,120.9739336,hsinchu_modern_clinic.csv
范揚峰骨科診所,24.804424,120.974428,hsinchu_modern_clinic.csv
王松桂泌尿科診所,24.804427,120.974166,hsinchu_modern_clinic.csv
陳耳鼻喉科診所,24.803869,120.971345,hsinchu_modern_clinic.csv
倪耳鼻喉科診所,24.8043324,120.9717168,hsinchu_modern_clinic.csv
陳志宏眼科診所,24.8044381,120.97171,hsinchu_modern_clinic.csv
林煜朗耳鼻喉科診所,24.796695,120.9750792,hsinchu_modern_clinic.csv
張辰光復健科診所,24.8205628,120.9673086,hsinchu_modern_clinic.csv
洪振德內科診所,24.7982082,120.9711181,hsinchu_modern_clinic.csv
羅興邦家庭醫學科診所,24.7984951,120.9707645,hsinchu_modern_clinic.csv
余鄭錦峰復健診所,24.8006039,120.9678579,hsinchu_modern_clinic.csv
上明眼科診所,24.8006595,120.9676973,hsinchu_modern_clinic.csv
傅小兒科診所,24.801964,120.9670675,hsinchu_modern_clinic.csv
城佑耳鼻喉科診所,24.8016351,120.9950074,hsinchu_modern_clinic.csv
苑芝珊診所,24.8005077,120.9957594,hsinchu_modern_clinic.csv
建功骨科外科診所,24.8006397,120.9964126,hsinchu_modern_clinic.csv
欣安診所,24.7863766,121.0095216,hsinchu_modern_clinic.csv
蔡文進小兒科診所,24.7981555,120.9775846,hsinchu_modern_clinic.csv
林聖旦耳鼻喉科診所,24.818277,120.9714339,hsinchu_modern_clinic.csv
江美麗婦產科診所,24.7989693,120.9989594,hsinchu_modern_clinic.csv
優生婦產科診所,24.8144241,120.9738119,hsinchu_modern_clinic.csv
鄭眼科診所,24.8122329,120.9652757,hsinchu_modern_clinic.csv
王外科內科聯合診所,24.8040596,120.97157,hsinchu_modern_clinic.csv
康復診所,24.8017632,120.9868355,hsinchu_modern_clinic.csv
龔耳鼻喉科,24.7967288,120.951152,hsinchu_modern_clinic.csv
莊乾信內科診所,24.807153,120.9670103,hsinchu_modern_clinic.csv
劉復國診所,24.8055904,120.9668304,hsinchu_modern_clinic.csv
林正凱好孕診所,24.8095221,120.966075,hsinchu_modern_clinic.csv
羅丹診所,24.8129162,120.9639948,hsinchu_modern_clinic.csv
媚登峰新竹診所,24.81132,120.9653804,hsinchu_modern_clinic.csv
維君診所,24.8108722,120.969422,hsinchu_modern_clinic.csv
安慎健康管理診所,24.811177,120.9674318,hsinchu_modern_clinic.csv
泰安診所,24.8072736,120.9637977,hsinchu_modern_clinic.csv
宏仁診所,24.797304,120.961863,hsinchu_modern_clinic.csv
新朝診所,24.7972872,120.9617163,hsinchu_modern_clinic.csv
陳志成耳鼻喉科診所,24.8098486,120.9587551,hsinchu_modern_clinic.csv
長福診所,24.805818,120.9561861,hsinchu_modern_clinic.csv
恩緹極緻美學診所,24.8158577,120.9721722,hsinchu_modern_clinic.csv
林敬堯親子診所,24.8197365,120.9730844,hsinchu_modern_clinic.csv
佳崋診所,24.8158458,120.9721815,hsinchu_modern_clinic.csv
舜天診所,24.812092,120.958372,hsinchu_modern_clinic.csv
宏安骨科診所,24.803246,120.9560609,hsinchu_modern_clinic.csv
廖文瑜皮膚科診所,24.8045212,120.9560224,hsinchu_modern_clinic.csv
麗明眼科診所,24.8040137,120.9554217,hsinchu_modern_clinic.csv
杏慈婦產科診所,24.8039909,120.9554349,hsinchu_modern_clinic.csv
和泰耳鼻喉科診所,24.8022653,120.961092,hsinchu_modern_clinic.csv
民安診所,24.8072145,120.9637236,hsinchu_modern_clinic.csv
柏廷耳鼻喉科診所,24.8056384,120.9777928,hsinchu_modern_clinic.csv
億安診所,24.8077194,120.977124,hsinchu_modern_clinic.csv
聖興復健診所,24.8094588,120.9798984,hsinchu_modern_clinic.csv
欣悅光診所,24.8064901,120.9747463,hsinchu_modern_clinic.csv
林亮辰皮膚專科診所,24.8073579,120.976182,hsinchu_modern_clinic.csv
綺色佳診所,24.8069698,120.9709025,hsinchu_modern_clinic.csv
陳雲濤眼科診所,24.8084664,120.9728759,hsinchu_modern_clinic.csv
麗池診所,24.8030388,120.9793839,hsinchu_modern_clinic.csv
柏薈纖麗診所,24.8135009,120.9716465,hsinchu_modern_clinic.csv
平衡身心診所,24.8129356,120.9689685,hsinchu_modern_clinic.csv
維醫診所,24.8137922,120.9741199,hsinchu_modern_clinic.csv
杏光骨科診所,24.7844697,121.0140777,hsinchu_modern_clinic.csv
榮輝診所,24.8004654,120.9894777,hsinchu_modern_clinic.csv
茱麗婦產科診所,24.7963882,120.9977231,hsinchu_modern_clinic.csv
馥儷時尚診所,24.80155,120.96838,hsinchu_modern_clinic.csv
何耳鼻喉科診所,24.7967041,120.969533,hsinchu_modern_clinic.csv
廖健仲胃腸肝膽內科診所,24.7945351,120.9724669,hsinchu_modern_clinic.csv
欣欣診所,24.7814155,121.022765,hsinchu_modern_clinic.csv
禾康耳鼻喉科診所,24.7969272,120.9700917,hsinchu_modern_clinic.csv
賴閔宦小兒科診所,24.796494,120.968376,hsinchu_modern_clinic.csv
漢杰小兒科診所,24.80042,120.967911,hsinchu_modern_clinic.csv
阮皮膚科診所,24.8024588,120.9955082,hsinchu_modern_clinic.csv
新竹科學工業園區員工診所,24.778334,121.00495,hsinchu_modern_clinic.csv
員康診所,24.7730433,121.0128003,hsinchu_modern_clinic.csv
力晶診所,24.7682138,121.0170283,hsinchu_modern_clinic.csv
成民內科診所,24.7865621,121.0101773,hsinchu_modern_clinic.csv
健新耳鼻喉科診所,24.797975,120.996647,hsinchu_modern_clinic.csv
小太陽耳鼻喉科診所,24.798272,120.9970816,hsinchu_modern_clinic.csv
生昇診所,24.7912671,121.0125144,hsinchu_modern_clinic.csv
林祺彬皮膚科診所,24.8093769,120.9764746,hsinchu_modern_clinic.csv
彥靚診所,24.8101451,120.9772457,hsinchu_modern_clinic.csv
愛生美皮膚科診所,24.8094597,120.9738663,hsinchu_modern_clinic.csv
靚世紀診所,24.8133379,120.9804248,hsinchu_modern_clinic.csv
安新診所,24.8142657,120.9790285,hsinchu_modern_clinic.csv
安禾診所,24.8142657,120.9790285,hsinchu_modern_clinic.csv
林正修診所,24.8019847,120.988669,hsinchu_modern_clinic.csv
艾美時尚診所,24.7837475,121.0169917,hsinchu_modern_clinic.csv
上允耳鼻喉科診所,24.7837475,121.0169917,hsinchu_modern_clinic.csv
謝德貴兒童診所,24.7837475,121.0169917,hsinchu_modern_clinic.csv
陽光診所,24.7837475,121.0169917,hsinchu_modern_clinic.csv
康德診所,24.7842318,121.0163475,hsinchu_modern_clinic.csv
松青診所,24.785916,121.0148355,hsinchu_modern_clinic.csv
張益豪耳鼻喉專科診所,24.7847352,121.0156988,hsinchu_modern_clinic.csv
聖宜診所,24.8016524,120.9707668,hsinchu_modern_clinic.csv
雅得麗生活診所,24.803916,120.971959,hsinchu_modern_clinic.csv
佳醫診所,24.7978341,120.9646372,hsinchu_modern_clinic.csv
新竹悠美診所,24.8075481,120.9722375,hsinchu_modern_clinic.csv
晨心兒科診所,24.8083382,120.9726291,hsinchu_modern_clinic.csv
宏偉婦產科診所,24.8133817,120.9743528,hsinchu_modern_clinic.csv
馬大元診所,24.787685,121.0111626,hsinchu_modern_clinic.csv
遠見眼科診所,24.7888154,121.0129077,hsinchu_modern_clinic.csv
小森林兒科診所,24.7887378,121.0129721,hsinchu_modern_clinic.csv
昇安診所,24.7897049,121.0119131,hsinchu_modern_clinic.csv
林君怡小兒專科診所,24.7889306,121.0119805,hsinchu_modern_clinic.csv
康田親子診所,24.7889835,121.0121112,hsinchu_modern_clinic.csv
晶亮眼科診所,24.8015863,120.9967509,hsinchu_modern_clinic.csv
上水透析診所,24.8017782,120.9679461,hsinchu_modern_clinic.csv
歆美皮診所,24.78414,121.016004,hsinchu_modern_clinic.csv
親禾身心診所,24.7854788,121.0181351,hsinchu_modern_clinic.csv
威爾診所,24.7847585,121.0179872,hsinchu_modern_clinic.csv
曾嘉慶內科診所,24.7859274,121.0186565,hsinchu_modern_clinic.csv
關之美時尚診所,24.7857029,121.0202503,hsinchu_modern_clinic.csv
恆心診所,24.7878558,121.0200103,hsinchu_modern_clinic.csv
德康診所,24.7439797,120.9059919,hsinchu_modern_clinic.csv
新美診所,24.7913798,120.9261103,hsinchu_modern_clinic.csv
元培健康診所,24.7762377,120.9407615,hsinchu_modern_clinic.csv
嘉軒耳鼻喉科診所,24.7995935,120.9533717,hsinchu_modern_clinic.csv
陳達文內科診所,24.7960727,120.9644847,hsinchu_modern_clinic.csv
李育奇診所,24.8040128,120.9641342,hsinchu_modern_clinic.csv
保元診所,24.8406845,120.9365062,hsinchu_modern_clinic.csv
李賢祺診所,24.8372049,120.9423165,hsinchu_modern_clinic.csv
吳廷臣診所,24.8085542,120.9738448,hsinchu_modern_clinic.csv
啟恩小兒科診所,24.8103031,120.9777744,hsinchu_modern_clinic.csv
林獻雄診所,24.7979395,120.9647902,hsinchu_modern_clinic.csv
惠民真平內科外科聯合診所,24.8072446,120.9765296,hsinchu_modern_clinic.csv
清華大學附設診所(委託臺北榮民總醫院新竹分院經營),24.7957091,120.9947106,hsinchu_modern_clinic.csv
蘇銘煜診所,24.7822089,121.0189519,hsinchu_modern_clinic.csv
江秀蓉診所,24.7842545,121.0139317,hsinchu_modern_clinic.csv
長春診所,24.7946337,120.9998104,hsinchu_modern_clinic.csv
謝碧祥診所,24.7948817,120.9995284,hsinchu_modern_clinic.csv
林芳勝診所,24.7966267,120.9797191,hsinchu_modern_clinic.csv
蘇釗人診所,24.8043262,120.9718248,hsinchu_modern_clinic.csv
范診所,24.7857408,121.0141809,hsinchu_modern_clinic.csv
恩慈診所,24.7959952,120.9992716,hsinchu_modern_clinic.csv
普惠耳鼻喉科診所,24.7953101,120.973873,hsinchu_modern_clinic.csv
秦登峰診所,24.794649,120.96552,hsinchu_modern_clinic.csv
邱診所,24.7952548,120.9608496,hsinchu_modern_clinic.csv
健安診所,24.789452,120.927164,hsinchu_modern_clinic.csv
恩輝診所,24.7439711,120.905677,hsinchu_modern_clinic.csv
全興診所,24.7956843,120.9424274,hsinchu_modern_clinic.csv
新竹市北區衛生所,24.8163725,120.9703142,hsinchu_modern_clinic.csv
新竹市東區衛生所,24.8054695,120.9736744,hsinchu_modern_clinic.csv
新竹市香山衛生所,24.7940491,120.9422677,hsinchu_modern_clinic.csv
中美藥局,24.7965176,120.9707596,hsinchu_pharmacy.csv
康寧藥局,24.809078,120.970978,hsinchu_pharmacy.csv
李藥局,24.7857506,121.0143028,hsinchu_pharmacy.csv
信芳藥局,24.7836015,121.011474,hsinchu_pharmacy.csv
金松大藥局,24.795619,120.998607,hsinchu_pharmacy.csv
南門藥局,24.801858,120.9670993,hsinchu_pharmacy.csv
大家藥局,24.80045,120.968602,hsinchu_pharmacy.csv
聖心藥局,24.795209,120.973681,hsinchu_pharmacy.csv
華安中西藥局,24.7928671,120.9626127,hsinchu_pharmacy.csv
倫洋藥局,24.8008403,120.9948835,hsinchu_pharmacy.csv
誠真藥局,24.8046339,120.9698489,hsinchu_pharmacy.csv
長青藥師藥局,24.8105749,120.97644,hsinchu_pharmacy.csv
長明藥局,24.808515,120.9737324,hsinchu_pharmacy.csv
幼安藥局,24.8080292,120.97765,hsinchu_pharmacy.csv
安禾藥局,24.7954586,120.9987784,hsinchu_pharmacy.csv
仁美藥局,24.7949512,120.9624469,hsinchu_pharmacy.csv
康博中西藥局,24.7838879,120.967303,hsinchu_pharmacy.csv
新竹實和藥局,24.8055755,120.9672604,hsinchu_pharmacy.csv
東海藥局,24.78163,121.021298,hsinchu_pharmacy.csv
中央藥局,24.8086886,120.9736402,hsinchu_pharmacy.csv
康元藥局,24.8006397,120.9964126,hsinchu_pharmacy.csv
康田大藥局,24.7768611,121.023664,hsinchu_pharmacy.csv
淯祐藥局,24.8124107,120.9720373,hsinchu_pharmacy.csv
安安大藥局,24.7814287,121.0222169,hsinchu_pharmacy.csv
東禾藥局,24.8042709,120.971691,hsinchu_pharmacy.csv
三立藥局,24.8016741,120.9928547,hsinchu_pharmacy.csv
法瑪士藥局,24.8151082,120.9806918,hsinchu_pharmacy.csv
新康藥局,24.7991116,120.9640999,hsinchu_pharmacy.csv
國豐大藥局,24.7838785,121.0166266,hsinchu_pharmacy.csv
婷婷藥局,24.7737442,120.9666416,hsinchu_pharmacy.csv
安康藥局,24.8077194,120.977124,hsinchu_pharmacy.csv
佳佳藥局,24.7978341,120.9646372,hsinchu_pharmacy.csv
博弘藥局,24.796494,120.968376,hsinchu_pharmacy.csv
博正藥局,24.8073142,120.9765276,hsinchu_pharmacy.csv
佑信大藥局,24.783848,121.0167074,hsinchu_pharmacy.csv
新芳鄰藥局,24.7977211,120.9695131,hsinchu_pharmacy.csv
澄清藥局,24.8023078,120.9655381,hsinchu_pharmacy.csv
哈佛藥局,24.8117878,120.9710746,hsinchu_pharmacy.csv
杏康健保特約藥局,24.7838732,121.01348,hsinchu_pharmacy.csv
健康小熊藥局,24.7969272,120.9700917,hsinchu_pharmacy.csv
千仟藥局,24.802233,120.988912,hsinchu_pharmacy.csv
永安調劑藥局,24.7858866,121.0115331,hsinchu_pharmacy.csv
孟德爾頌藥局,24.8060649,120.9739336,hsinchu_pharmacy.csv
得安專業藥師藥局,24.7986632,120.9659754,hsinchu_pharmacy.csv
明湖健保藥局,24.7855462,120.9674723,hsinchu_pharmacy.csv
宏禎藥局,24.798272,120.9970816,hsinchu_pharmacy.csv
城佑藥局,24.8016351,120.9950074,hsinchu_pharmacy.csv
合康連鎖藥局光復店,24.7843313,121.0152829,hsinchu_pharmacy.csv
全民好藥局,24.787685,121.0111626,hsinchu_pharmacy.csv
禾心藥局,24.8120542,120.9753897,hsinchu_pharmacy.csv
合康連鎖藥局,24.8056,120.976774,hsinchu_pharmacy.csv
康健藥局,24.8069565,120.9711766,hsinchu_pharmacy.csv
芮成藥局,24.8129356,120.9689685,hsinchu_pharmacy.csv
禾安藥局,24.7897049,121.0119131,hsinchu_pharmacy.csv
牛津藥局,24.8067663,120.975568,hsinchu_pharmacy.csv
上允藥局,24.7837475,121.0169917,hsinchu_pharmacy.csv
佑全新竹自由藥局,24.8139955,120.9798388,hsinchu_pharmacy.csv
小樹藥局,24.7887378,121.0129721,hsinchu_pharmacy.csv
關東藥局,24.7829036,121.0187424,hsinchu_pharmacy.csv
田美藥局,24.8157848,120.9766447,hsinchu_pharmacy.csv
倫洲藥局,24.7979501,120.977935,hsinchu_pharmacy.csv
華妤潾藥局,24.7889306,121.0119805,hsinchu_pharmacy.csv
新莊藥局,24.7841178,121.0148966,hsinchu_pharmacy.csv
佑全新竹光復藥局,24.7830865,121.0175847,hsinchu_pharmacy.csv
金佑信藥局,24.7817175,121.0224098,hsinchu_pharmacy.csv
合康連鎖藥局關新店,24.7860556,121.0206117,hsinchu_pharmacy.csv
康妍藥局,24.7966426,120.9703295,hsinchu_pharmacy.csv
丁丁藥局,24.8078317,120.9813408,hsinchu_pharmacy.csv
生生藥局,24.8068263,120.9796452,hsinchu_pharmacy.csv
合康連鎖藥局食品店,24.7976968,120.9769362,hsinchu_pharmacy.csv
笛卡爾藥局,24.7834309,121.0176503,hsinchu_pharmacy.csv
仁春藥局,24.7924475,121.0153042,hsinchu_pharmacy.csv
永盛藥局,24.8169862,120.9743761,hsinchu_pharmacy.csv
劉藥局,24.8000554,120.9613278,hsinchu_pharmacy.csv
永富大藥局,24.8053913,120.9661294,hsinchu_pharmacy.csv
健和藥局,24.8073052,120.9668155,hsinchu_pharmacy.csv
芳鄰藥局,24.8167241,120.968877,hsinchu_pharmacy.csv
保健藥局,24.8032808,120.9636782,hsinchu_pharmacy.csv
台大藥局,24.8073821,120.9616511,hsinchu_pharmacy.csv
全禾藥局,24.8049252,120.961538,hsinchu_pharmacy.csv
新廣德中西藥局,24.8047958,120.9564696,hsinchu_pharmacy.csv
健康藥局,24.8044881,120.9562008,hsinchu_pharmacy.csv
家庭藥局,24.8182001,120.9716713,hsinchu_pharmacy.csv
正大藥局,24.8147352,120.9625275,hsinchu_pharmacy.csv
廣元藥局,24.8161962,120.9657802,hsinchu_pharmacy.csv
台安藥局,24.8017471,120.959844,hsinchu_pharmacy.csv
佑健藥局,24.8046154,120.9557052,hsinchu_pharmacy.csv
欣欣藥局,24.8100945,120.9591559,hsinchu_pharmacy.csv
長福藥局,24.805818,120.9561861,hsinchu_pharmacy.csv
保安藥局,24.8098788,120.9588457,hsinchu_pharmacy.csv
芳里藥局,24.8053461,120.954479,hsinchu_pharmacy.csv
均祐健康藥局,24.815421,120.960929,hsinchu_pharmacy.csv
好一生藥局,24.819709,120.9730452,hsinchu_pharmacy.csv
健霖藥局,24.8014159,120.9607182,hsinchu_pharmacy.csv
豐盛藥局,24.8181959,120.9747525,hsinchu_pharmacy.csv
幼能健保藥局,24.8133421,120.959178,hsinchu_pharmacy.csv
閎安專業藥局,24.8406992,120.9366664,hsinchu_pharmacy.csv
吉康藥局,24.839725,120.938292,hsinchu_pharmacy.csv
盛安藥局,24.801129,120.960389,hsinchu_pharmacy.csv
中福藥局,24.8407729,120.9327181,hsinchu_pharmacy.csv
永沛藥局,24.8209281,120.974071,hsinchu_pharmacy.csv
好鄰居健保藥局,24.8013424,120.9635186,hsinchu_pharmacy.csv
悅橙藥局,24.8033701,120.9560745,hsinchu_pharmacy.csv
興安藥局,24.8049794,120.9496173,hsinchu_pharmacy.csv
合康連鎖藥局西大店,24.8100341,120.9589711,hsinchu_pharmacy.csv
合康連鎖藥局湳雅店,24.8171758,120.9702143,hsinchu_pharmacy.csv
佑全新竹光華藥局,24.8172336,120.9723208,hsinchu_pharmacy.csv
承康藥局,24.8081312,120.9656909,hsinchu_pharmacy.csv
立新藥師藥局,24.8049122,120.9533467,hsinchu_pharmacy.csv
仁星藥局,24.811556,120.9563026,hsinchu_pharmacy.csv
康立藥局,24.8156949,120.9681081,hsinchu_pharmacy.csv
四維丁丁藥局,24.7983008,120.9622684,hsinchu_pharmacy.csv
仁佑藥局,24.8422101,120.9342187,hsinchu_pharmacy.csv
新竹北門藥局,24.8141628,120.9629194,hsinchu_pharmacy.csv
躍獅光華藥局,24.8158705,120.9743532,hsinchu_pharmacy.csv
速安藥局,24.730862,120.915921,hsinchu_pharmacy.csv
新祥發大藥局,24.7883016,120.9276834,hsinchu_pharmacy.csv
健安藥局,24.7440111,120.905677,hsinchu_pharmacy.csv
高晟藥師藥局,24.7897064,120.9279861,hsinchu_pharmacy.csv
健佑藥局,24.7893372,120.928345,hsinchu_pharmacy.csv
香山丁丁藥局,24.7960257,120.9440171,hsinchu_pharmacy.csv
聯合大藥局,24.794478,121.175981,hsinchu_pharmacy.csv
明德藥局,24.7914956,121.1778044,hsinchu_pharmacy.csv
仁泰藥局,24.812186,121.1315929,hsinchu_pharmacy.csv
進安藥局,24.791791,121.1760111,hsinchu_pharmacy.csv
佳仁藥局,24.7922549,121.1770646,hsinchu_pharmacy.csv
康和藥局,24.793904,121.17596,hsinchu_pharmacy.csv
高平堂藥局,24.7926489,121.1760999,hsinchu_pharmacy.csv
仁禾藥局,24.7920397,121.1761902,hsinchu_pharmacy.csv
安東藥師藥局,24.7914034,121.1764704,hsinchu_pharmacy.csv
關西藥局,24.7914674,121.1763286,hsinchu_pharmacy.csv
廣和藥局,24.827584,121.0809651,hsinchu_pharmacy.csv
日興藥局,24.8277986,121.0802266,hsinchu_pharmacy.csv
康立藥局新埔店,24.8278491,121.0765831,hsinchu_pharmacy.csv
梁藥局,24.827666,121.0798511,hsinchu_pharmacy.csv
新普藥局,24.8261332,121.0763838,hsinchu_pharmacy.csv
健民藥局,24.7359797,121.0883516,hsinchu_pharmacy.csv
鄧藥局,24.7384243,121.0881477,hsinchu_pharmacy.csv
國瑞藥局,24.7379754,121.0875431,hsinchu_pharmacy.csv
榮信藥局,24.7407638,121.0858624,hsinchu_pharmacy.csv
華德藥局,24.7369072,121.0888224,hsinchu_pharmacy.csv
健通藥局,24.7390081,121.0862806,hsinchu_pharmacy.csv
永康藥局,24.7400711,121.0863524,hsinchu_pharmacy.csv
能安西藥局,24.7216941,121.096516,hsinchu_pharmacy.csv
合康藥局,24.7398793,121.0861325,hsinchu_pharmacy.csv
平安佳藥局,24.7369777,121.0880357,hsinchu_pharmacy.csv
好好藥局,24.7693768,121.0541935,hsinchu_pharmacy.csv
健康人生藥局,24.7740919,121.0479329,hsinchu_pharmacy.csv
日榮堂藥局,24.7361022,121.0892222,hsinchu_pharmacy.csv
國豐大藥局,24.7402266,121.0865297,hsinchu_pharmacy.csv
仁愛藥局,24.7373824,121.0881798,hsinchu_pharmacy.csv
竹東朝陽藥局,24.7419776,121.0851836,hsinchu_pharmacy.csv
樂安藥師藥局,24.7370841,121.0915392,hsinchu_pharmacy.csv
新月藥局,24.7483376,121.0816099,hsinchu_pharmacy.csv
順佳藥局,24.7336909,121.0886192,hsinchu_pharmacy.csv
春天藥局,24.7390595,121.0872667,hsinchu_pharmacy.csv
鑫美藥局,24.7440683,121.0828966,hsinchu_pharmacy.csv
杏仁渼藥局,24.7676187,121.0559732,hsinchu_pharmacy.csv
東林藥局,24.7368774,121.0913451,hsinchu_pharmacy.csv
夏天藥局,24.7388251,121.0874425,hsinchu_pharmacy.csv
康立藥局,24.8354022,121.012296,hsinchu_pharmacy.csv
健新藥局,24.842557,120.996864,hsinchu_pharmacy.csv
六久藥局,24.8402183,121.0027772,hsinchu_pharmacy.csv
救星藥局,24.8338734,121.0270641,hsinchu_pharmacy.csv
林保郎藥師藥局,24.830991,121.0124115,hsinchu_pharmacy.csv
健安藥局,24.8386719,121.0112582,hsinchu_pharmacy.csv
北一藥師藥局,24.8352671,121.0142261,hsinchu_pharmacy.csv
吉新藥局,24.8371027,121.0053048,hsinchu_pharmacy.csv
博士藥局,24.8313501,121.0120797,hsinchu_pharmacy.csv
良美藥局,24.8324192,121.005772,hsinchu_pharmacy.csv
禾松藥局,24.8247024,121.0248716,hsinchu_pharmacy.csv
真善美藥局,24.8232867,121.0285808,hsinchu_pharmacy.csv
無尾熊藥師藥局,24.8212341,121.0261703,hsinchu_pharmacy.csv
波士頓藥局,24.8322127,121.0121797,hsinchu_pharmacy.csv
健元藥局,24.8350614,121.0132118,hsinchu_pharmacy.csv
詠美藥局,24.8348705,121.0087804,hsinchu_pharmacy.csv
長康藥師藥局,24.8305771,121.0155637,hsinchu_pharmacy.csv
家欣藥局,24.8135529,121.0320249,hsinchu_pharmacy.csv
佑安藥局,24.8401147,121.002049,hsinchu_pharmacy.csv
振元藥師藥局,24.813594,121.0237669,hsinchu_pharmacy.csv
嘉岳藥局,24.8232165,121.0264909,hsinchu_pharmacy.csv
正科大藥局,24.8222668,121.0076189,hsinchu_pharmacy.csv
阿姆斯壯藥局,24.809612,121.0254208,hsinchu_pharmacy.csv
欣欣藥局,24.8181352,121.0168907,hsinchu_pharmacy.csv
竹仁藥師藥局,24.83703,121.012739,hsinchu_pharmacy.csv
仁康藥局,24.8314887,121.0121129,hsinchu_pharmacy.csv
晶華藥局,24.8173878,121.0202844,hsinchu_pharmacy.csv
健樹藥局,24.8225319,121.0248748,hsinchu_pharmacy.csv
仁里藥局,24.8223711,121.0278638,hsinchu_pharmacy.csv
芳鄰藥局,24.8330766,121.0129546,hsinchu_pharmacy.csv
如佳藥局,24.8416428,120.998756,hsinchu_pharmacy.csv
禾坊藥局,24.8214226,121.0094876,hsinchu_pharmacy.csv
中一藥局,24.8101753,121.0286912,hsinchu_pharmacy.csv
祐祐藥局,24.8407737,121.00057,hsinchu_pharmacy.csv
仁暉藥局,24.8331975,121.0065481,hsinchu_pharmacy.csv
日安藥局,24.814261,121.024272,hsinchu_pharmacy.csv
竹北啄木鳥藥局,24.8322168,121.0054021,hsinchu_pharmacy.csv
育禾藥局,24.8155412,121.0193687,hsinchu_pharmacy.csv
仁信藥局,24.8071363,121.0320247,hsinchu_pharmacy.csv
立順藥局,24.8161841,121.0299099,hsinchu_pharmacy.csv
上紘藥局,24.8165104,121.0295417,hsinchu_pharmacy.csv
源川藥局,24.8084474,121.0331208,hsinchu_pharmacy.csv
竹北光明藥局,24.8301228,121.0157479,hsinchu_pharmacy.csv
中華藥局,24.8312059,121.002615,hsinchu_pharmacy.csv
金慧藥局,24.8195,121.0111829,hsinchu_pharmacy.csv
佑東藥師藥局,24.8238772,121.013199,hsinchu_pharmacy.csv
艾美藥局,24.8429807,120.9670679,hsinchu_pharmacy.csv
成功藥局,24.8194512,121.0238778,hsinchu_pharmacy.csv
佳美中西藥局,24.8143512,121.0283708,hsinchu_pharmacy.csv
高名藥局,24.8184382,121.0164173,hsinchu_pharmacy.csv
幼幼健保藥局,24.8172677,121.0279082,hsinchu_pharmacy.csv
仁品藥局,24.8146705,121.0280612,hsinchu_pharmacy.csv
文興藥局,24.8093212,121.0307111,hsinchu_pharmacy.csv
立康藥局,24.8386992,121.0009658,hsinchu_pharmacy.csv
佑全竹北中正藥局,24.8414463,120.9997122,hsinchu_pharmacy.csv
方米藥局,24.8394966,121.0106685,hsinchu_pharmacy.csv
合康連鎖藥局竹北店,24.8359147,121.0080923,hsinchu_pharmacy.csv
美德藥局,24.8091071,121.0307149,hsinchu_pharmacy.csv
金竹藥局,24.8249576,121.0259777,hsinchu_pharmacy.csv
合康連鎖藥局竹北二店,24.8173652,121.0258996,hsinchu_pharmacy.csv
暖林藥局,24.8207619,121.0145168,hsinchu_pharmacy.csv
十興藥局,24.8236436,121.0267683,hsinchu_pharmacy.csv
正安西藥局,24.8999574,121.041118,hsinchu_pharmacy.csv
黃藥師中西藥局,24.9027048,121.0453925,hsinchu_pharmacy.csv
家康藥局,24.8370806,121.00436,hsinchu_pharmacy.csv
中心藥局,24.9015769,121.0468478,hsinchu_pharmacy.csv
聖康藥師藥局,24.9002971,121.0472701,hsinchu_pharmacy.csv
如家藥師藥局,24.8691339,121.0264181,hsinchu_pharmacy.csv
中興藥局,24.8663192,121.0301932,hsinchu_pharmacy.csv
湖口藥局,24.9015385,121.0445332,hsinchu_pharmacy.csv
安健藥局,24.8985293,121.0474415,hsinchu_pharmacy.csv
勝利大藥局,24.8632625,121.0262164,hsinchu_pharmacy.csv
仁和藥局,24.8714867,121.016809,hsinchu_pharmacy.csv
育祥藥局,24.866788,121.024943,hsinchu_pharmacy.csv
湖山藥局,24.9034851,121.0444841,hsinchu_pharmacy.csv
羽田藥局,24.9015367,121.0448682,hsinchu_pharmacy.csv
宏安藥局,24.901441,121.043725,hsinchu_pharmacy.csv
合康藥局湖口,24.903077,121.045728,hsinchu_pharmacy.csv
金樓藥局,24.9018271,120.9872401,hsinchu_pharmacy.csv
建仁藥局,24.8728716,120.9949508,hsinchu_pharmacy.csv
春安藥局,24.9033365,120.9854909,hsinchu_pharmacy.csv
惠生藥局,24.8716769,120.997034,hsinchu_pharmacy.csv
彰懷藥局,24.8663616,120.9925629,hsinchu_pharmacy.csv
立人藥局,24.8711897,120.9952301,hsinchu_pharmacy.csv
第一調劑藥局,24.8743441,120.9946653,hsinchu_pharmacy.csv
新揚藥局,24.8703126,120.9966118,hsinchu_pharmacy.csv
昌昌藥局,24.9046641,120.9845409,hsinchu_pharmacy.csv
泰安藥局,24.8689543,120.9944061,hsinchu_pharmacy.csv
仁川藥局,24.8994452,120.9869553,hsinchu_pharmacy.csv
新豐藥局,24.8757411,120.9948342,hsinchu_pharmacy.csv
立果藥局,24.8695088,120.9926428,hsinchu_pharmacy.csv
新華方西藥局,24.7769443,121.0778956,hsinchu_pharmacy.csv
暘光藥局,24.7753509,121.0802139,hsinchu_pharmacy.csv
大銨藥局,24.750711,121.098041,hsinchu_pharmacy.csv
寶唄藥局,24.7655054,120.9901442,hsinchu_pharmacy.csv
埔元藥局,24.7027301,121.0542706,hsinchu_pharmacy.csv
家佳福藥局,24.711876,121.203854,hsinchu_pharmacy.csv
林正修診所,24.8019847,120.988669,hsinchu_psychiatric.csv
能清安欣診所,24.8089652,120.9749983,hsinchu_psychiatric.csv
馬大元診所,24.787685,121.0111626,hsinchu_psychiatric.csv
平衡身心診所,24.8129356,120.9689685,hsinchu_psychiatric.csv
安立身心診所,24.8248991,121.0243196,hsinchu_psychiatric.csv
國立臺灣大學醫學院附設醫院新竹臺大分院新竹醫院,24.8158818,120.9806239,hsinchu_telemedicine_hospital.csv
東元醫療社團法人東元綜合醫院,24.8238051,121.0139579,hsinchu_telemedicine_hospital.csv
國軍桃園總醫院新竹分院附設民眾診療服務處,24.8161603,120.96212,hsinchu_telemedicine_hospital.csv
國泰醫療財團法人新竹國泰綜合醫院,24.7982691,120.9652902,hsinchu_telemedicine_hospital.csv
南門綜合醫院,24.8023174,120.9696944,hsinchu_telemedicine_hospital.csv
國立臺灣大學醫學院附設醫院新竹臺大分院生醫醫院,24.8158818,120.9806239,hsinchu_telemedicine_hospital.csv
臺北榮民總醫院新竹分院,24.7225965,121.1001722,hsinchu_telemedicine_hospital.csv
天主教仁慈醫療財團法人仁慈醫院,24.9005152,121.0454746,hsinchu_telemedicine_hospital.csv
中國醫藥大學新竹附設醫院,24.8242007,121.0014812,hsinchu_telemedicine_hospital.csv
竹信醫院,24.734258,121.090935,hsinchu_telemedicine_hospital.csv
大安醫院,24.8347547,121.0081372,hsinchu_telemedicine_hospital.csv
新仁醫院,24.8355892,121.0077876,hsinchu_telemedicine_hospital.csv
私立傳家社區長照機構,24.7960153,120.9600837,longterm_care_institution.csv
有限責任新竹市清安照顧服務勞動合作社附設私立新竹市清安居家長期機構,24.8010761,120.982903,longterm_care_institution.csv
財團法人老五老基金會附設新竹市私立老五老居家式服務類長期照顧服務機構,24.7807684,121.0165137,longterm_care_institution.csv
東暉長照股份有限公司新竹市私立東暉居家長照機構,24.8020169,120.9769766,longterm_care_institution.csv
社團法人新竹市松齡長照關懷協會,24.8029323,120.9576898,longterm_care_institution.csv
財團法人天主教耶穌會新竹社會服務中心附設私立秋霖園社區長照機構,24.8042551,120.9609284,longterm_care_institution.csv
黃志豪職能治療所(金竹里),24.8228841,120.9751588,longterm_care_institution.csv
康威復能物理治療所,24.8147354,120.9663878,longterm_care_institution.csv
曾文智診所,24.7854898,120.9672553,longterm_care_institution.csv
黃志豪職能治療所(明湖里),24.7651047,120.9772576,longterm_care_institution.csv
長青福祉租賃股份有限公司,24.8026058,120.9555979,longterm_care_institution.csv
新竹市私立欣安老人長期照顧中心(養護型),24.7971583,120.9686553,longterm_care_institution.csv
國軍桃園總醫院新竹分院附設民眾診療服務處,24.8161603,120.96212,longterm_care_institution.csv
社團法人新竹市福祿壽長青協會,24.8196723,120.9643116,longterm_care_institution.csv
南門綜合醫院,24.8141262,120.9771773,longterm_care_institution.csv
億安診所,24.8077194,120.977124,longterm_care_institution.csv
新竹市東區水源社區發展協會,24.811658,121.002103,longterm_care_institution.csv
新竹市私立仙樂園老人長期照顧中心(養護型),24.7320295,120.9155033,longterm_care_institution.csv
安慎診所,24.8069698,120.9709025,longterm_care_institution.csv
樂心築居家物理治療所,24.7940902,120.9537406,longterm_care_institution.csv
國泰醫療財團法人新竹國泰綜合醫院,24.798276,120.9652857,longterm_care_institution.csv
樂心有限公司附設新竹市私立喜樂齡居家長照機構,24.8122159,120.9644956,longterm_care_institution.csv
溫暖居家物理治療所,24.7839927,121.0140033,longterm_care_institution.csv
新竹市泉明社會服務發展協會,24.8069167,120.9564154,longterm_care_institution.csv
新竹市私立平安家園社區長照機構,24.7901422,121.0117777,longterm_care_institution.csv
新竹市原住民身心障礙者協會(頂埔里),24.8001069,120.9543174,longterm_care_institution.csv
有限責任新竹市清安照顧服務勞動合作社附設私立新竹市清安居家長照機構(到宅沐浴車),24.8010761,120.982903,longterm_care_institution.csv
人愛居家護理所,24.797017,120.9633953,longterm_care_institution.csv
順順居家護理所(光鎮里),24.7892856,120.9664385,longterm_care_institution.csv
蘇銘煜診所,24.7822089,121.0189519,longterm_care_institution.csv
大新居家護理所,24.8210472,120.9717739,longterm_care_institution.csv
新竹市香山區衛生所,24.7940156,120.9422102,longterm_care_institution.csv
財團法人天主教耶穌會新竹社會服務中心附設私立居家長照機構,24.8042551,120.9609284,longterm_care_institution.csv
財團法人天主教耶穌會新竹社會服務中心,24.8042551,120.9609284,longterm_care_institution.csv
財團法人永修精舍,24.818702,120.9597426,longterm_care_institution.csv
社團法人新竹市懷安協會(朝山里),24.7705907,120.9136586,longterm_care_institution.csv
國泰醫療財團法人附設新竹居家護理所,24.798276,120.9652857,longterm_care_institution.csv
新竹市私立佑安護理之家,24.803772,120.966393,longterm_care_institution.csv
社團法人中華民國士林靈糧堂社會福利協會,24.803404,120.9713779,longterm_care_institution.csv
新竹市香山區香村社區發展協會,24.7783514,120.9381846,longterm_care_institution.csv
新竹市東區科園社區發展協會,24.7825622,121.0095127,longterm_care_institution.csv
社團法人新竹市松齡長照關懷協會附設新竹市私立居家式服務類長期照顧服務機構,24.8029323,120.9576898,longterm_care_institution.csv
晁翊行動服務有限公司,24.795094,120.9685893,longterm_care_institution.csv
財團法人老五老基金會附設新竹市私立竹馨園社區式服務類長期照顧服務機構,24.7807684,121.0165137,longterm_care_institution.csv
有限責任新竹市清安照顧服務勞動合作社附設私立新竹市清安居家長期機構(原床泡澡),24.8010761,120.982903,longterm_care_institution.csv
陳萬龍診所,24.8161962,120.9657802,longterm_care_institution.csv
新竹市北區港北社區發展協會,24.8283984,120.9238145,longterm_care_institution.csv
元培健康診所,24.7762377,120.9407615,longterm_care_institution.csv
謝承霖兒童診所,24.8067422,120.9755303,longterm_care_institution.csv
羅興邦家庭醫學科診所,24.7984951,120.9707645,longterm_care_institution.csv
財團法人基督教中華協力會附設新竹市私立伯大尼老人養護中心,24.804876,120.945607,longterm_care_institution.csv
有限責任新竹市清安照顧服務勞動合作社（新光里）,24.7915617,120.9736511,longterm_care_institution.csv
新竹市私立懷親老人養護中心,24.7570169,120.9108576,longterm_care_institution.csv
新竹市樂齡健康促進協會,24.7560441,120.910265,longterm_care_institution.csv
順順居家護理所,24.8010761,120.982903,longterm_care_institution.csv
有限責任新竹市清安照顧服務勞動合作社（千甲里）,24.8010761,120.982903,longterm_care_institution.csv
有限責任台灣智群看護家事管理勞動合作社附設新竹市私立智群居家長照機構,24.7954933,120.9490033,longterm_care_institution.csv
廣兆有限公司附設新竹市私立廣兆居家長照機構,24.7955199,120.9758602,longterm_care_institution.csv
平和醫療社團法人附設和平護理之家,24.8088916,120.9556374,longterm_care_institution.csv
新竹市原住民身心障礙者協會(虎林里),24.8049282,120.9433932,longterm_care_institution.csv
新竹市私立佳樂居家長照機構,24.8153171,120.9623343,longterm_care_institution.csv
黃耳鼻喉科診所,24.7858866,121.0115331,longterm_care_institution.csv
黃志豪職能治療所(建華里),24.794126,120.975362,longterm_care_institution.csv
和松居家護理所,24.8093725,120.9559689,longterm_care_institution.csv
新竹市私立怡安居家長照機構,24.7993821,120.981875,longterm_care_institution.csv
財團法人佛教慈濟慈善事業基金會,24.785289,120.919311,longterm_care_institution.csv
財團法人基督教中華協力會附設新竹市私立家樂園社區式服務類長期照顧服務機構,24.804876,120.945607,longterm_care_institution.csv
安行國際租賃有限公司,24.8408801,120.9306526,longterm_care_institution.csv
新竹市華夏金城服務協會,24.7956025,121.0047696,longterm_care_institution.csv
倪耳鼻喉科診所,24.8043324,120.9717168,longterm_care_institution.csv
松慈護理之家,24.7812423,120.9664742,longterm_care_institution.csv
新竹市天后慈愛崇善會,24.8084357,120.9811453,longterm_care_institution.csv
財團法人私立桃園仁愛之家附設新竹新生醫院,24.8016053,120.9634921,longterm_care_institution.csv
仁捷租賃有限公司,24.8109062,120.9653823,longterm_care_institution.csv
吳憲一內科小兒科診所,24.79638,120.96934,longterm_care_institution.csv
新竹市香山區東香社區發展協會,24.7732931,120.951438,longterm_care_institution.csv
新竹市香山區樹下社區發展協會,24.8010748,120.9346466,longterm_care_institution.csv
新竹市私立子馨居家長照機構,24.8010761,120.982903,longterm_care_institution.csv
新竹市北區衛生所,24.8163187,120.9703722,longterm_care_institution.csv
財團法人中華民國佛教慈濟慈善事業基金會新竹市私立慈濟居家長照機構,24.785289,120.919311,longterm_care_institution.csv
三泰汽車行,24.8037813,120.9877381,longterm_care_institution.csv
小太陽耳鼻喉科診所,24.798272,120.9970816,longterm_care_institution.csv
國軍桃園總醫院新竹分院附設民眾診療服務處附設居家護理所,24.8161603,120.96212,longterm_care_institution.csv
大新長期照顧服務股份有限公司附設新竹市私立大新居家長照機構,24.8168328,120.9608954,longterm_care_institution.csv
五福護理之家,24.7456684,120.9212693,longterm_care_institution.csv
陳志成耳鼻喉科診所,24.8098486,120.9587551,longterm_care_institution.csv
實和診所,24.8055565,120.9672309,longterm_care_institution.csv
長福診所,24.805818,120.9561861,longterm_care_institution.csv
財團法人台灣省私立桃園仁愛之家附設新竹新生醫院康護居家護理所,24.8016053,120.9634921,longterm_care_institution.csv
新竹市東區振興社區發展協會,24.7965326,120.9643699,longterm_care_institution.csv
蕭子青小兒科診所,24.8109091,120.980745,longterm_care_institution.csv
新竹市東區金山社區發展協會,24.7807698,121.022436,longterm_care_institution.csv
誠芯樂活事業股份有限公司附設新竹市私立誠芯居家長照機構,24.8036139,120.9800742,longterm_care_institution.csv
財團法人老五老基金會(社區式服務交通接送),24.7807684,121.0165137,longterm_care_institution.csv
南門綜合醫院附設居家護理,24.8021381,120.969653,longterm_care_institution.csv
國軍桃園總醫院新竹分院附設民眾診療服務處附設護理之家,24.8161603,120.96212,longterm_care_institution.csv
懷安有限公司附設新竹市私立安心66居家長照機構,24.8006545,120.9612523,longterm_care_institution.csv
康德診所,24.78414,121.016004,longterm_care_institution.csv
新竹市私立欣慈社區長照機構,24.7960427,120.9600018,longterm_care_institution.csv
新迦居家護理所,24.802698,120.9831363,longterm_care_institution.csv
財團法人老五老基金會,24.7807684,121.0165137,longterm_care_institution.csv
吳廷臣診所,24.8085542,120.9738448,longterm_care_institution.csv
財團法人天主教耶穌會新竹社會服務中心(社區式服務交通接送),24.8042551,120.9609284,longterm_care_institution.csv
冠易租車有限公司,24.795094,120.9685893,longterm_care_institution.csv
台灣基督長老教會馬偕醫療財團法人新竹馬偕紀念醫院,24.8000704,120.9907507,longterm_care_institution.csv
台灣基督長老教會馬偕醫療財團法人附設新竹馬偕居家護理所,24.8000704,120.9907507,longterm_care_institution.csv
財團法人基督教中華協力會附設新竹市私立居家式服務類長期照顧服務機構,24.8049412,120.9456024,longterm_care_institution.csv
國立臺灣大學醫學院附設醫院新竹臺大分院新竹醫院,24.8152746,120.9800043,longterm_care_institution.csv
新竹市原住民身心障礙者協會(社區式交通接送),24.8049282,120.9433932,longterm_care_institution.csv
欣悅光診所,24.8064901,120.9747463,longterm_care_institution.csv
黃志豪職能治療所(福林里),24.8155717,120.9655411,longterm_care_institution.csv
黃志豪職能治療所(新莊里),24.790047,121.0185283,longterm_care_institution.csv
新竹縣特約-劉復國診所,24.8055904,120.9668304,longterm_care_institution.csv
欣欣診所,24.7814155,121.022765,longterm_care_institution.csv
新竹市東區立功社區發展協會,24.7932018,121.0040754,longterm_care_institution.csv
社團法人新竹市懷安協會(頂竹里),24.7971713,120.9747709,longterm_care_institution.csv
保證責任中華民國國軍軍眷住宅公用合作社附設新竹市私立福曜居家長照機構,24.8167736,120.9740653,longterm_care_institution.csv
新竹市香山區海山社區發展協會,24.7621019,120.9178187,longterm_care_institution.csv
財團法人台灣省私立桃園仁愛之家附設新竹老人養護中心,24.8017248,120.9635931,longterm_care_institution.csv
國立臺灣大學醫學院附設醫院新竹臺大分院新竹醫院附設居家護理,24.8152746,120.9800043,longterm_care_institution.csv
黃志豪職能治療所,24.8064521,120.9747016,longterm_care_institution.csv
新竹市北區士林社區發展協會,24.8240711,120.95455,longterm_care_institution.csv
新竹市私立慈慧老人長期照顧中心(養護型),24.808443,120.9633136,longterm_care_institution.csv
新竹市東區衛生所,24.8051685,120.9732529,longterm_care_institution.csv
新竹縣私立立慈養護中心,24.8946059,120.969879,longterm_care_institution.csv
和康護理之家,24.8806909,121.0066066,longterm_care_institution.csv
哈佛有限公司附設新竹縣私立哈佛居家長照機構,24.7902809,121.176413,longterm_care_institution.csv
"(巷弄長照站臨托)社團法人中華民國五福社會服務協會	",24.8695487,121.0348132,longterm_care_institution.csv
康照居家護理所,24.7707635,121.0545748,longterm_care_institution.csv
新竹縣寶山鄉衛生所,24.7669123,120.99482,longterm_care_institution.csv
紫宸運動實業社附設私立紫宸居家長照機構(湖口鄉C),24.9017598,121.0383216,longterm_care_institution.csv
新竹縣芎林鄉永興社區發展協會,24.8361326,121.022371,longterm_care_institution.csv
荷蘭村護理之家,24.7402587,121.1627542,longterm_care_institution.csv
健安婦產科診所,24.8724628,120.9992909,longterm_care_institution.csv
新竹縣私立明政社區長照機構,24.7335377,121.0895506,longterm_care_institution.csv
財團法人新竹縣私立保順養護中心,24.7468638,121.1027474,longterm_care_institution.csv
新竹縣私立勝光長期照顧中心(養護型),24.8778001,121.0555915,longterm_care_institution.csv
富林護理之家,24.7678644,121.0762306,longterm_care_institution.csv
中華民國原住民老人長期照顧暨婦幼受暴緊急安置發展關懷協會,24.711876,121.203854,longterm_care_institution.csv
天主教仁慈醫療財團法人附設新竹仁慈居家護理所,24.9004859,121.0455461,longterm_care_institution.csv
社團法人中華民國五福社會服務協會,24.8941021,121.0440362,longterm_care_institution.csv
都會原住民文化健康站,24.7368657,121.0910763,longterm_care_institution.csv
旬好居家職能治療所,24.8039285,121.0425616,longterm_care_institution.csv
彭聖勇小兒科內科專科診所,24.8350123,121.0078862,longterm_care_institution.csv
新竹縣尖石鄉田埔社區發展協會,24.6395574,121.2750606,longterm_care_institution.csv
新竹縣關西鎮新富社區發展協會,24.7613233,121.1853557,longterm_care_institution.csv
新仁醫院(A單位),24.8356902,121.0078165,longterm_care_institution.csv
新竹縣私立醫生伯的家社區式服務類長期照顧服務機構,24.7349823,121.0891271,longterm_care_institution.csv
新竹縣竹東鎮振興客家文化發展協會,24.7574845,121.0698815,longterm_care_institution.csv
新竹縣新埔鎮南平社區發展協會,24.8427544,121.0668301,longterm_care_institution.csv
新竹縣關西鎮錦山社區發展協會,24.7700867,121.2511908,longterm_care_institution.csv
新竹縣私立高強居家式長照機構,24.8694699,121.0260363,longterm_care_institution.csv
財團法人中華民國佛教慈濟慈善事業基金會(新竹縣),24.7298302,121.088679,longterm_care_institution.csv
禾馨護理之家,24.8489247,121.0048139,longterm_care_institution.csv
新竹縣關西鎮大同社區發展協會,24.8118093,121.1509924,longterm_care_institution.csv
新竹縣湖口鄉湖南社區發展協會,24.8730439,121.040952,longterm_care_institution.csv
新竹縣銀享社會福利協會,24.8723418,120.99693,longterm_care_institution.csv
國立臺灣大學醫學院附設醫院新竹臺大分院生醫醫院附設護理之家,24.7189239,121.093259,longterm_care_institution.csv
天主教仁慈醫療財團法人仁慈醫院(新豐鄉),24.8710035,120.9976695,longterm_care_institution.csv
新仁醫院,24.8356902,121.0078165,longterm_care_institution.csv
彭福麒小兒科診所,24.8363391,121.0086199,longterm_care_institution.csv
長泰護理之家,24.9210228,120.9820754,longterm_care_institution.csv
財團法人台灣基督長老教會泰雅爾中會義興教會,24.6890264,121.1779672,longterm_care_institution.csv
新竹縣梅嘎浪總體產業發展協會,24.6743482,121.19539,longterm_care_institution.csv
田埔文化健康站,24.6395574,121.2750606,longterm_care_institution.csv
新竹縣關西鎮下橫坑文化產業發展協會,24.7851435,121.1280781,longterm_care_institution.csv
財團法人錸德文教基金會(A單位)-新竹縣,24.8727827,121.0227196,longterm_care_institution.csv
大心居家職能治療所,24.8238186,121.0289021,longterm_care_institution.csv
新竹縣橫山鄉衛生所,24.717597,121.1393428,longterm_care_institution.csv
社團法人中華民國五福社會服務協會附設新竹縣私立五福居家式服務類長期照顧服務機構,24.8741396,120.986419,longterm_care_institution.csv
艾兒診所,24.8144805,121.0284035,longterm_care_institution.csv
新竹縣蒲公英關懷弱勢權益促進協會附設新竹縣私立蒲公英社區式服務類長期照顧服務機構,24.8403066,121.0083383,longterm_care_institution.csv
新竹縣竹北市中興社區發展協會,24.81118,121.0340375,longterm_care_institution.csv
新竹縣五峰鄉衛生所,24.6316629,121.1192785,longterm_care_institution.csv
峨眉鄉衛生所附設居家護理所,24.6877076,121.0222256,longterm_care_institution.csv
財團法人台灣基督長老教會泰雅爾中會水田基督長老教會,24.7342169,121.2586974,longterm_care_institution.csv
竹北市老人安養中心,24.8178036,121.025738,longterm_care_institution.csv
康瑄生活實業有限公司附設私立康瑄居家長照機構,24.7809506,121.0753602,longterm_care_institution.csv
社團法人中華民國紅十字會台灣省新竹縣支會,24.8402555,121.0083843,longterm_care_institution.csv
新竹縣關西鎮金山社區發展協會,24.7678723,121.2240408,longterm_care_institution.csv
新竹縣新豐鄉福興社區發展協會,24.9393404,121.0363768,longterm_care_institution.csv
新竹縣私立幸福社區長照機構,24.8993432,121.046916,longterm_care_institution.csv
社團法人新竹縣社區學習照顧服務協會,24.8677488,121.0278368,longterm_care_institution.csv
日康診所,24.8141887,121.0242597,longterm_care_institution.csv
東元醫療社團法人東元綜合醫院,24.82365,121.013754,longterm_care_institution.csv
臺北榮民總醫院新竹分院附設居家護理所,24.7228659,121.0993276,longterm_care_institution.csv
北埔鄉衛生所附設居家護理所,24.7004444,121.0552902,longterm_care_institution.csv
新竹縣安歆照護關懷協會,24.8348061,121.0118837,longterm_care_institution.csv
社團法人台灣築心全人生命教育關懷協會,24.7805475,121.0286443,longterm_care_institution.csv
社團法人中華民國誠馨照顧協會附設新竹縣私立誠馨綜合式服務類長期照顧服務機構,24.7413548,121.0886367,longterm_care_institution.csv
瑞寶居家職能治療所,24.8235976,121.0100282,longterm_care_institution.csv
生通股份有限公司,24.8366787,120.9838559,longterm_care_institution.csv
財團法人臺灣省天主教會新竹教區附設新竹縣私立長安老人養護中心,24.7359744,121.0910285,longterm_care_institution.csv
新埔鎮衛生所附設居家護理所,24.8279487,121.0716669,longterm_care_institution.csv
信馨居服有限公司附設新竹縣私立信馨居家式服務類長期照顧服務機構,24.8394551,121.0075413,longterm_care_institution.csv
康健診所,24.7253318,121.0891804,longterm_care_institution.csv
石磊文化健康站,24.6556578,121.3264284,longterm_care_institution.csv
新竹縣寶山鄉新城社區發展協會,24.7418565,120.9776573,longterm_care_institution.csv
社團法人中華民國紅十字會台灣省新竹縣支會附設新竹縣私立博愛居家式服務類長期照顧服務機構,24.8402555,121.0083843,longterm_care_institution.csv
龢宣心理治療所,24.872402,121.013982,longterm_care_institution.csv
全豪小客車租賃有限公司,24.8242118,121.0139601,longterm_care_institution.csv
新竹縣北埔鄉南興社區發展協會,24.6988358,121.0560108,longterm_care_institution.csv
彭國楨診所,24.7280367,121.2268131,longterm_care_institution.csv
曾文怡診所,24.8401147,121.002049,longterm_care_institution.csv
財團法人台灣省私立桃園仁愛之家附設新竹縣私立新埔長期照顧中心(養護型),24.836151,121.0615183,longterm_care_institution.csv
清泉文化健康站,24.559407,121.1022942,longterm_care_institution.csv
新仁醫院附設居家護理所,24.8356902,121.0078165,longterm_care_institution.csv
新竹縣私立康禾居家式服務類長期照顧服務機構,24.826284,121.115309,longterm_care_institution.csv
嘉樂泰千診所,24.711876,121.203854,longterm_care_institution.csv
福氣銀髮事業有限公司附設私立福氣居家長照機構,24.8346991,121.0122737,longterm_care_institution.csv
財團法人新竹縣天主教世光教養院附設新竹縣私立新埔社區式服務類長期照顧服務機構,24.8164113,121.108695,longterm_care_institution.csv
新竹縣私立安歆綜合式服務類長期照顧服務機構,24.8348061,121.0118837,longterm_care_institution.csv
台灣基督長老教會馬偕醫療財團法人新竹馬偕紀念醫院,24.559407,121.1022942,longterm_care_institution.csv
崇德護理之家,24.8470752,121.044267,longterm_care_institution.csv
財團法人台灣省天主教會新竹教區附設新竹縣私立竹北社區式服務類長期照顧服務機構,24.8176612,121.0259064,longterm_care_institution.csv
新竹縣私立廣慈長期照顧中心(養護型),24.8937644,120.9719192,longterm_care_institution.csv
芊馨園護理之家,24.792649,121.073309,longterm_care_institution.csv
新竹縣竹北市衛生所附設居家護理所,24.8321233,121.006653,longterm_care_institution.csv
新竹縣竹東鎮柯湖社區發展協會,24.7598735,121.0372236,longterm_care_institution.csv
新竹縣湖口鄉老人會,24.9045162,121.0445305,longterm_care_institution.csv
和平診所,24.7358992,121.0892247,longterm_care_institution.csv
新竹縣福田社會福利協會,24.8287949,121.0176518,longterm_care_institution.csv
新竹縣私立禾意關懷協會居家式服務類長期照顧服務機構,24.8277054,121.0812291,longterm_care_institution.csv
新竹縣全齡文教發展協會,24.7383013,121.0864999,longterm_care_institution.csv
新竹縣社區居家關懷協會,24.69149,121.058548,longterm_care_institution.csv
新豐鄉衛生所附設居家護理所,24.8999145,120.9881191,longterm_care_institution.csv
臺北榮民總醫院新竹分院,24.7228659,121.0993276,longterm_care_institution.csv
新竹縣橫山鄉福興社區發展協會,24.7347154,121.1853557,longterm_care_institution.csv
新竹縣新豐鄉中崙社區發展協會,24.9000711,120.9980435,longterm_care_institution.csv
社團法人中華民國五福社會服務協會附設新竹縣私立五福社區式服務類長期照顧服務機構,24.8941021,121.0440362,longterm_care_institution.csv
新竹縣無負擔農村生活產業發展協會,24.686334,121.0145897,longterm_care_institution.csv
新竹縣湖口鄉德盛社區發展協會,24.908588,121.044467,longterm_care_institution.csv
平安診所,24.7723961,121.0834496,longterm_care_institution.csv
第一計程車客運服務行,24.8250539,121.0084329,longterm_care_institution.csv
新竹縣關西鎮東光社區發展協會,24.7837165,121.1820048,longterm_care_institution.csv
社團法人新竹縣社區學習照顧服務協會附設新竹縣私立柏壽居家長照機構,24.862129,121.0249139,longterm_care_institution.csv
新竹縣私立信馨社區式服務類長期照顧服務機構,24.789835,121.181829,longterm_care_institution.csv
財團法人喜憨兒社會福利基金會桃竹事務所,24.833639,121.0044899,longterm_care_institution.csv
國立臺灣大學醫學院附設醫院新竹臺大分院生醫醫院,24.7189239,121.093259,longterm_care_institution.csv
新竹縣照顧服務人員協會,24.6885036,121.0185959,longterm_care_institution.csv
沛群耳鼻喉專科診所,24.8401022,121.0024671,longterm_care_institution.csv
臺北榮民總醫院新竹分院附設社區式長期照顧服務機構,24.7228659,121.0993276,longterm_care_institution.csv
新竹縣關西鎮北山社區發展協會,24.8058508,121.1653117,longterm_care_institution.csv
新竹縣私立禾園居家長照機構,24.761663,121.092615,longterm_care_institution.csv
新竹縣尖石鄉衛生所,24.7057501,121.2023556,longterm_care_institution.csv
新竹縣私立慈恩養護中心,24.7118886,121.0980665,longterm_care_institution.csv
新竹縣峨眉鄉中盛社區發展協會,24.6956247,121.0306432,longterm_care_institution.csv
新竹縣橫山鄉大肚社區發展協會,24.7219482,121.1344199,longterm_care_institution.csv
新竹縣湖口鄉波羅社區發展協會,24.8833916,121.0249093,longterm_care_institution.csv
菩心居家護理所,24.839395,120.9957827,longterm_care_institution.csv
仁祥國際有限公司附設私立仁祥居家長照機構,24.8314944,121.0179942,longterm_care_institution.csv
福馨護理之家,24.8409361,121.0602443,longterm_care_institution.csv
社團法人新竹縣智障福利協進會,24.7208004,121.1137699,longterm_care_institution.csv
楊診所,24.8346953,121.0120328,longterm_care_institution.csv
呂紹達內科診所,24.7378112,121.087348,longterm_care_institution.csv
新竹縣新豐鄉新豐社區發展協會,24.9010996,120.9876841,longterm_care_institution.csv
新竹縣私立弘欣老人長期照顧中心(養護型),24.8596188,120.9759645,longterm_care_institution.csv
(日照喘息)社團法人中華民國五福社會服務協會附設新竹縣私立五福社區式服務類長期照顧服務機構,24.8941021,121.0440362,longterm_care_institution.csv
人欣健康事業有限公司附設新竹縣私立德善居家長照機構,24.9064531,121.0441992,longterm_care_institution.csv
科合行動服務有限公司,24.7678253,120.9896194,longterm_care_institution.csv
新竹縣關西鎮東山社區發展協會,24.7872914,121.1996708,longterm_care_institution.csv
中華民國老人福利協進會新竹縣分會新埔鎮支會,24.7836513,121.0795685,longterm_care_institution.csv
新竹縣竹東鎮員山社區發展協會,24.7893656,121.0345933,longterm_care_institution.csv
財團法人臺灣省天主教會新竹教區,24.8170831,121.1280781,longterm_care_institution.csv
新竹縣竹北市大眉社區發展協會,24.8543521,121.0027944,longterm_care_institution.csv
新竹縣寶山鄉觀光休閒產業文化協會附設私立新城風糖莊園居家長照機構,24.741954,120.97769,longterm_care_institution.csv
羅內科小兒科診所,24.7373469,121.0877473,longterm_care_institution.csv
新竹縣關西鎮下橫坑文化產業發展協會 ,24.7851435,121.1280781,longterm_care_institution.csv
尖石鄉衛生所附設居家護理所,24.7057501,121.2023556,longterm_care_institution.csv
新竹縣五峰鄉老人會,24.6487988,121.1538564,longterm_care_institution.csv
健祥小兒科診所,24.8212341,121.0261703,longterm_care_institution.csv
財團法人錸德文教基金會附設私立竹北錸工場社區長照機構,24.8369456,121.0181059,longterm_care_institution.csv
新竹縣關西鎮東興社區發展協會,24.7904757,121.1773161,longterm_care_institution.csv
新竹縣都市原住民關懷協會,24.7190833,121.0977481,longterm_care_institution.csv
社團法人中華民國原住民老人長期照顧暨婦幼受暴緊急安置發展關懷協會附設新竹縣私立拿互依居家長照機構,24.711876,121.203854,longterm_care_institution.csv
新竹縣竹東鎮油車窩文化協會,24.7433745,121.0822579,longterm_care_institution.csv
臺北榮民總醫院新竹分院附設護理之家,24.7228659,121.0993276,longterm_care_institution.csv
美安居家護理所,24.833883,121.0152924,longterm_care_institution.csv
紫宸運動實業社,24.8777692,121.0585044,longterm_care_institution.csv
有田診所,24.7911108,121.1762813,longterm_care_institution.csv
瀚華診所,24.8990153,120.9867919,longterm_care_institution.csv
財團法人新竹縣天主教世光教養院附設新竹縣私立北埔社區式服務類長期照顧服務機構,24.7010334,121.0564641,longterm_care_institution.csv
天主教仁慈醫療財團法人附設新竹仁慈護理之家,24.9004859,121.0455461,longterm_care_institution.csv
新竹縣竹北市新國社區發展協會,24.840059,120.9977803,longterm_care_institution.csv
杏安診所,24.8610818,120.9640339,longterm_care_institution.csv
新竹縣新埔鎮上寮社區發展協會,24.8368537,121.05118,longterm_care_institution.csv
新竹縣新豐鄉瑞興社區發展協會,24.9118901,121.0094454,longterm_care_institution.csv
社團法人台灣新豐以馬內利福音中心,24.8764159,120.9926845,longterm_care_institution.csv
中華民國山光都市原住民全人關懷促進會,24.858259,121.0200934,longterm_care_institution.csv
湖口鄉衛生所附設居家護理所,24.9009438,121.0481527,longterm_care_institution.csv
新竹縣私立明翰社區長照機構,24.7418989,121.0863302,longterm_care_institution.csv
希望種子職能治療所,24.828316,121.009434,longterm_care_institution.csv
新竹縣竹北市鹿場社區發展協會,24.8176612,121.0259064,longterm_care_institution.csv
天主教仁慈醫療財團法人仁慈醫院(湖口鄉),24.8637462,121.0234757,longterm_care_institution.csv
新竹縣私立長春長期照顧中心(養護型),24.8992515,121.0499148,longterm_care_institution.csv
財團法人喜憨兒社會福利基金會桃竹事務所附設私立憨喜身障社區長期照顧機構,24.8401679,121.0083444,longterm_care_institution.csv
天主教仁慈醫療財團法人仁慈醫院(新埔鎮),24.8279673,121.0730344,longterm_care_institution.csv
社團法人原住民老人長期照顧暨婦幼受暴緊急安置發展關懷協會-新樂分站,24.717516,121.268399,longterm_care_institution.csv
東元醫療社團法人附設居家護理所,24.82365,121.013754,longterm_care_institution.csv
新竹縣新埔鎮內立社區發展協會,24.814061,121.0836792,longterm_care_institution.csv
五峰鄉衛生所附設居家護理所,24.6316629,121.1192785,longterm_care_institution.csv
新竹縣新埔鎮下寮社區發展協會,24.8430229,121.036444,longterm_care_institution.csv
新竹縣竹北市隘口社區發展協會,24.8018505,121.03983,longterm_care_institution.csv
芎林鄉衛生所附設居家護理所,24.7774097,121.0777569,longterm_care_institution.csv
財團法人中華民國彿教慈濟慈濟事業基金會,24.7298302,121.088679,longterm_care_institution.csv
彥涵復健科診所,24.8998782,121.0432524,longterm_care_institution.csv
國立臺灣大學醫學院附設醫院新竹臺大分院生醫醫院附設居家護理所,24.7189239,121.093259,longterm_care_institution.csv
李克隆小兒科診所,24.8331935,120.9996756,longterm_care_institution.csv
財團法人新竹縣天主教世光教養院附設新竹縣私立橫山社區式服務類長期照顧服務機構,24.71733,121.1405644,longterm_care_institution.csv
社團法人新竹縣長青樹社會服務協會私立長青樹社區長照機構,24.7791238,121.0756238,longterm_care_institution.csv
新竹縣北埔鄉埔尾社區發展協會,24.7008694,121.0541694,longterm_care_institution.csv
竹東鎮衛生所附設居家護理所,24.7359354,121.0928253,longterm_care_institution.csv
祐嘉復健科骨科診所,24.8985293,121.0474415,longterm_care_institution.csv
財團法人喜憨兒社會福利基金會新竹分事務所附設新竹縣私立喜歡你社區式服務類長期照顧服務機構,24.7777468,121.076932,longterm_care_institution.csv
新竹縣芎林鄉文林社區發展協會,24.774705,121.0813724,longterm_care_institution.csv
曾政德婦產外科診所,24.7413134,121.0856101,longterm_care_institution.csv
新竹縣知心會,24.906029,121.047118,longterm_care_institution.csv
曾文智診所,24.8401147,121.002049,longterm_care_institution.csv
哈佛診所,24.7944266,121.1761147,longterm_care_institution.csv
新竹縣關西鎮仁安社區發展協會,24.8098101,121.2002372,longterm_care_institution.csv
財團法人台灣基督長老教會泰雅爾中會水田教會,24.7171862,121.2557522,longterm_care_institution.csv
新竹縣新埔鎮鹿鳴社區發展協會,24.8517039,121.1395358,longterm_care_institution.csv
美安居家護理所,24.8265871,121.0281754,longterm_care_institution.csv
寶山鄉衛生所附設居家護理所,24.7669123,120.99482,longterm_care_institution.csv
新竹縣北埔鄉南外社區發展協會,24.67068,121.0601068,longterm_care_institution.csv
中華民國原住民老人長期照顧暨婦幼受暴緊急安置發展關懷協會,24.681667,121.244853,longterm_care_institution.csv
新竹縣湖口鄉鳳凰社區發展協會,24.8749255,121.0135173,longterm_care_institution.csv
日興家庭醫學科診所,24.7914572,121.1768824,longterm_care_institution.csv
十八兒文化健康站,24.6299073,121.1188858,longterm_care_institution.csv
財團法人新竹縣天主教世光教養院-關西區,24.812685,121.12998,longterm_care_institution.csv
天主教仁慈醫療財團法人附設新竹縣私立新豐仁慈居家式服務類長期照顧服務機構,24.8710035,120.9976695,longterm_care_institution.csv
新竹縣芎林鄉石潭社區發展協會,24.7450877,121.1041592,longterm_care_institution.csv
高平堂藥局,24.7926489,121.1760999,longterm_care_institution.csv
財團法人中華民國彿教慈濟慈濟事業基金會附設新竹市居家長照機構(新竹縣醫事C),24.7298302,121.088679,longterm_care_institution.csv
瑪琍亞護理之家,24.739257,121.0929471,longterm_care_institution.csv
新竹縣私立德欣老人長期照顧中心(養護型),24.8877654,121.0870063,longterm_care_institution.csv
國立臺灣大學醫學院附設醫院竹東分院(復健科),24.7189239,121.093259,longterm_care_institution.csv
大安醫院,24.8347547,121.0081372,longterm_care_institution.csv
財團法人新竹縣天主教世光教養院,24.7321541,121.0890633,longterm_care_institution.csv
新竹縣湖口鄉鳳山社區發展協會,24.8580528,121.0135526,longterm_care_institution.csv
新竹縣竹北市農友協進會,24.8611458,120.9644993,longterm_care_institution.csv
新竹縣竹東鎮森林環保協會,24.7447196,121.0858291,longterm_care_institution.csv
新竹縣關西鎮石光社區發展協會,24.8140679,121.1297788,longterm_care_institution.csv
新竹縣禾意關懷協會,24.8277054,121.0812291,longterm_care_institution.csv
新竹縣私立日光社區長照機構,24.875503,121.042416,longterm_care_institution.csv
新竹縣竹東鎮原住民家庭文化成長協會,24.7417146,121.0833133,longterm_care_institution.csv
張仁祥眼科診所,24.8314887,121.0121129,longterm_care_institution.csv
新竹縣新埔鎮北平社區發展協會,24.8562482,121.0851019,longterm_care_institution.csv
新竹縣私立以馬內利居家長照機構,24.663522,121.165977,longterm_care_institution.csv
新竹縣新埔鎮五埔社區發展協會,24.816659,121.111798,longterm_care_institution.csv
新竹縣私立菩心居家式服務類長期照顧服務機構,24.8034947,121.0344044,longterm_care_institution.csv
新竹縣湖口鄉長嶺社區發展協會,24.8912299,121.0735061,longterm_care_institution.csv
(小規機喘息)新竹縣私立醫生伯的家社區式服務類長期照顧服務機構,24.7349823,121.0891271,longterm_care_institution.csv
新竹市物理治療生公會,24.8631573,120.9670782,longterm_care_institution.csv
新竹縣竹北市衛生所,24.8321233,121.006653,longterm_care_institution.csv
社團法人台灣以馬內利福音中心,24.8764159,120.9926845,longterm_care_institution.csv
新竹縣私立新埔家園老人長期照顧中心(養護型),24.8183144,121.0723318,longterm_care_institution.csv
清華大學附設診所(委託台北榮民總醫院新竹分院經營),24.7225965,121.1001722,hsinchu_telemedicine.csv
王外科內科聯合診所,24.803995,120.9716085,hsinchu_telemedicine.csv
林安復耳鼻喉科診所,24.8068398,120.9796459,hsinchu_telemedicine.csv
吳憲一內科小兒科診所,24.79638,120.96934,hsinchu_telemedicine.csv
簡小兒科內科診所,24.8022227,120.9656419,hsinchu_telemedicine.csv
江婦產科診所,24.8083186,120.9777376,hsinchu_telemedicine.csv
永美陳志閔診所,24.8081454,120.9777986,hsinchu_telemedicine.csv
吳廷臣診所,24.8085542,120.9738448,hsinchu_telemedicine.csv
石銘煌診所,24.804261,120.969243,hsinchu_telemedicine.csv
李文華診所,24.8118942,120.9755231,hsinchu_telemedicine.csv
永堅眼科診所,24.808469,120.9737299,hsinchu_telemedicine.csv
彭耳鼻喉科診所,24.8086728,120.9736061,hsinchu_telemedicine.csv
廖明厚小兒科診所,24.808065,120.9777149,hsinchu_telemedicine.csv
謝碧祥診所,24.7948739,120.9995209,hsinchu_telemedicine.csv
普惠耳鼻喉科,24.7954724,120.9737198,hsinchu_telemedicine.csv
邱國華耳鼻喉科診所,24.8124002,120.9720434,hsinchu_telemedicine.csv
安慎診所,24.8069698,120.9709025,hsinchu_telemedicine.csv
英慈耳鼻喉科診所,24.7955618,120.9986683,hsinchu_telemedicine.csv
送子鳥診所,24.802898,120.9914148,hsinchu_telemedicine.csv
江美麗婦產科診所,24.8024361,120.9932183,hsinchu_telemedicine.csv
陳志宏眼科診所,24.8043098,120.9716746,hsinchu_telemedicine.csv
林正弘小兒科診所,24.8149863,120.974349,hsinchu_telemedicine.csv
趙永康小兒科診所,24.8117878,120.9710746,hsinchu_telemedicine.csv
城佑耳鼻喉科診所,24.8016351,120.9950074,hsinchu_telemedicine.csv
惠民真平內科外科聯合診所,24.807302,120.976486,hsinchu_telemedicine.csv
能清安欣診所,24.8089727,120.974995,hsinchu_telemedicine.csv
廖健仲胃腸肝膽內科診所,24.7945351,120.9724669,hsinchu_telemedicine.csv
林正修診所,24.8019847,120.988669,hsinchu_telemedicine.csv
賴閔宦小兒科診所,24.796649,120.9682687,hsinchu_telemedicine.csv
阮皮膚科診所,24.802333,120.995456,hsinchu_telemedicine.csv
謝承霖兒童診所,24.8067179,120.975519,hsinchu_telemedicine.csv
禾康耳鼻喉科診所,24.7969272,120.9700917,hsinchu_telemedicine.csv
億安診所,24.807672,120.9772104,hsinchu_telemedicine.csv
宏偉婦產科診所,24.8133458,120.9743903,hsinchu_telemedicine.csv
謝德貴兒童診所,24.7834642,121.0176161,hsinchu_telemedicine.csv
新竹科學工業園區員工診所,24.7805102,121.0048126,hsinchu_telemedicine.csv
陽光診所,24.7835576,121.0173895,hsinchu_telemedicine.csv
上允耳鼻喉科診所,24.783737,121.017134,hsinchu_telemedicine.csv
林君怡小兒專科診所,24.7889306,121.0119805,hsinchu_telemedicine.csv
陳雲濤眼科診所,24.8084664,120.9728759,hsinchu_telemedicine.csv
馬大元診所,24.7876835,121.0111579,hsinchu_telemedicine.csv
張益豪耳鼻喉專科診所,24.7846363,121.0158486,hsinchu_telemedicine.csv
平衡身心診所,24.8129305,120.9689264,hsinchu_telemedicine.csv
昇安診所,24.7894713,121.0117633,hsinchu_telemedicine.csv
小森林兒科診所,24.7888936,121.0130043,hsinchu_telemedicine.csv
晨心兒科診所,24.8082955,120.9726481,hsinchu_telemedicine.csv
陳建銘婦產科診所,24.8200763,120.9702383,hsinchu_telemedicine.csv
劉復國診所,24.8055904,120.9668304,hsinchu_telemedicine.csv
台安耳鼻喉科診所,24.8018078,120.9599935,hsinchu_telemedicine.csv
李賢祺診所,24.8372218,120.9422463,hsinchu_telemedicine.csv
陳君毅小兒科診所,24.8099956,120.9590402,hsinchu_telemedicine.csv
祐庭耳鼻喉科診所,24.8182001,120.9716713,hsinchu_telemedicine.csv
健群耳鼻喉科診所,24.8059862,120.9660444,hsinchu_telemedicine.csv
英群莊皮膚科診所,24.8081312,120.9656909,hsinchu_telemedicine.csv
實和診所,24.8055491,120.9672141,hsinchu_telemedicine.csv
陳志成耳鼻喉科診所,24.8099069,120.9588472,hsinchu_telemedicine.csv
林敬堯親子診所,24.8197792,120.9730274,hsinchu_telemedicine.csv
和泰耳鼻喉科診所,24.8022653,120.961092,hsinchu_telemedicine.csv
莊乾信內科診所,24.807205,120.967072,hsinchu_telemedicine.csv
元培健康診所,24.7778029,120.940409,hsinchu_telemedicine.csv
永霖牙醫診所,24.800451,120.967886,hsinchu_telemedicine.csv
寶傑美學牙醫診所,24.7978342,120.9647305,hsinchu_telemedicine.csv
和毅牙醫診所,24.7996696,120.9654346,hsinchu_telemedicine.csv
傑霖牙醫診所,24.807684,120.961352,hsinchu_telemedicine.csv
創美牙醫診所,24.8037793,120.9553645,hsinchu_telemedicine.csv
慶仁眼科內科中醫診所,24.8029666,120.9734698,hsinchu_telemedicine.csv
詹台杰中醫診所,24.808438,120.974052,hsinchu_telemedicine.csv
晉業中醫診所,24.7846889,121.0153239,hsinchu_telemedicine.csv
科理中醫診所,24.7973599,120.9742355,hsinchu_telemedicine.csv
丞太中醫診所,24.8063169,120.9761274,hsinchu_telemedicine.csv
上明中醫聯合診所,24.7370977,121.0911755,hsinchu_telemedicine.csv
琉璃光中醫診所,24.8014393,120.9762047,hsinchu_telemedicine.csv
陳俊麟中醫診所,24.802507,120.9867843,hsinchu_telemedicine.csv
和杏中醫診所,24.7853079,121.0122089,hsinchu_telemedicine.csv
恩慈經典中醫診所,24.7837027,121.0170374,hsinchu_telemedicine.csv
蔡宗璟中醫診所,24.805213,120.970007,hsinchu_telemedicine.csv
李思慧中醫診所,24.782229,121.020767,hsinchu_telemedicine.csv
新桐中醫診所,24.8061225,120.9741443,hsinchu_telemedicine.csv
騏佑中醫診所,24.795785,120.971141,hsinchu_telemedicine.csv
薇竹中醫診所,24.8025735,120.993357,hsinchu_telemedicine.csv
勻品中醫診所,24.797999,120.9701022,hsinchu_telemedicine.csv
唯嘉中醫診所,24.7878352,121.0208936,hsinchu_telemedicine.csv
真澄中醫診所,24.809301,120.9739849,hsinchu_telemedicine.csv
李如英中醫診所,24.8058337,120.9671675,hsinchu_telemedicine.csv
秀善中醫診所,24.799764,120.9611584,hsinchu_telemedicine.csv
陳彥吉中醫診所,24.798732,120.962905,hsinchu_telemedicine.csv
一品堂中醫診所,24.7970972,120.9629941,hsinchu_telemedicine.csv
聖堯中醫診所,24.818087,120.9652549,hsinchu_telemedicine.csv
恆康中醫診所,24.8034599,120.9563143,hsinchu_telemedicine.csv
嘉心堂中醫診所,24.8210526,120.9746855,hsinchu_telemedicine.csv
同安堂中醫診所,24.8182375,120.9668007,hsinchu_telemedicine.csv
惠生中醫診所,24.8031299,120.9557657,hsinchu_telemedicine.csv
新竹縣橫山鄉衛生所,24.717597,121.1393428,hsinchu_telemedicine.csv
新竹縣尖石鄉衛生所,24.7057501,121.2023556,hsinchu_telemedicine.csv
新竹縣五峰鄉衛生所,24.6316629,121.1192785,hsinchu_telemedicine.csv
葉治威外科診所,24.7369777,121.0880357,hsinchu_telemedicine.csv
王尹弘耳鼻喉科診所,24.7400866,121.0863577,hsinchu_telemedicine.csv
德安聯合診所,24.7396373,121.0867519,hsinchu_telemedicine.csv
冠興診所,24.7440683,121.0828966,hsinchu_telemedicine.csv
張國珍小兒科診所,24.7396155,121.0924706,hsinchu_telemedicine.csv
平安葉國安耳鼻喉科診所,24.7369777,121.0880357,hsinchu_telemedicine.csv
平安李昀璇診所,24.7369777,121.0880357,hsinchu_telemedicine.csv
彭福麒小兒科診所,24.8362877,121.0086199,hsinchu_telemedicine.csv
戴芳正診所,24.840458,121.0016722,hsinchu_telemedicine.csv
曾文智診所,24.840078,121.002083,hsinchu_telemedicine.csv
第一聯合診所,24.8334489,121.0146169,hsinchu_telemedicine.csv
傅仁良小兒科診所,24.832359,121.0057409,hsinchu_telemedicine.csv
彭聖勇小兒科內科專科診所,24.8350369,121.0079119,hsinchu_telemedicine.csv
劉家麟皮膚專科診所,24.8311803,121.0120349,hsinchu_telemedicine.csv
劉信志診所,24.8305972,121.0150632,hsinchu_telemedicine.csv
游恆懿診所,24.825661,121.0100216,hsinchu_telemedicine.csv
竹安眼科診所,24.8282809,121.0070805,hsinchu_telemedicine.csv
麥建方小兒專科診所,24.8246571,121.0250015,hsinchu_telemedicine.csv
游丞顯小兒科診所,24.8119477,121.0252086,hsinchu_telemedicine.csv
健祥小兒科診所,24.8211012,121.026149,hsinchu_telemedicine.csv
安立身心診所,24.8248991,121.0243196,hsinchu_telemedicine.csv
台齡身心診所,24.832473,121.0108733,hsinchu_telemedicine.csv
惠慎診所,24.8234095,121.0130005,hsinchu_telemedicine.csv
麗明眼科診所,24.8115786,121.02603,hsinchu_telemedicine.csv
啄木鳥耳鼻喉科診所,24.822532,121.0248749,hsinchu_telemedicine.csv
康青骨科診所,24.8354386,121.0141853,hsinchu_telemedicine.csv
張建智內科診所,24.8405444,121.011595,hsinchu_telemedicine.csv
洪瑞聰小兒專科診所,24.8181352,121.0168907,hsinchu_telemedicine.csv
王伯堅診所,24.830399,121.016309,hsinchu_telemedicine.csv
竹仁婦幼診所,24.8370583,121.0123056,hsinchu_telemedicine.csv
涂富籌復健診所,24.8219216,121.0082172,hsinchu_telemedicine.csv
艾兒診所,24.8144722,121.0284108,hsinchu_telemedicine.csv
新瓦屋小兒科診所,24.8111921,121.0266216,hsinchu_telemedicine.csv
歌斐木診所,24.8084709,121.0330463,hsinchu_telemedicine.csv
立安親子診所,24.8118128,121.0345476,hsinchu_telemedicine.csv
戴國城診所,24.8145008,121.0288558,hsinchu_telemedicine.csv
吳冠興皮膚科診所,24.7440683,121.0828966,hsinchu_telemedicine.csv
朱先營診所,24.902507,121.044904,hsinchu_telemedicine.csv
天主教聖母診所,24.9008094,121.0451262,hsinchu_telemedicine.csv
創意診所,24.901441,121.043725,hsinchu_telemedicine.csv
羅世績診所,24.8748148,120.9944826,hsinchu_telemedicine.csv
泰生婦產科診所,24.8690319,120.994458,hsinchu_telemedicine.csv
永杏小兒科診所,24.8663688,120.9925673,hsinchu_telemedicine.csv
豐泰耳鼻喉科診所,24.8718498,120.996972,hsinchu_telemedicine.csv
民安診所,24.763197,120.98693,hsinchu_telemedicine.csv
時代牙醫診所,24.7386947,121.0878174,hsinchu_telemedicine.csv
光明牙醫診所,24.814805,121.020586,hsinchu_telemedicine.csv
長鴻中醫診所,24.79425,121.176166,hsinchu_telemedicine.csv
杏林中醫診所,24.73845,121.090882,hsinchu_telemedicine.csv
天安中醫診所,24.8366872,121.0086359,hsinchu_telemedicine.csv
仁義中醫診所,24.8184726,121.02057,hsinchu_telemedicine.csv
安興中醫診所,24.834404,121.009445,hsinchu_telemedicine.csv
啟真中醫診所,24.8323525,121.0113226,hsinchu_telemedicine.csv
永濟中醫診所,24.8342032,121.0072092,hsinchu_telemedicine.csv
喜悅中醫診所,24.8231093,121.0297357,hsinchu_telemedicine.csv
聖昀中醫診所,24.8166783,121.0252138,hsinchu_telemedicine.csv
達生中醫診所,24.8219392,121.0081836,hsinchu_telemedicine.csv
宥銨中醫診所,24.8254823,121.0046987,hsinchu_telemedicine.csv
玄唐中醫診所,24.8374777,121.0094561,hsinchu_telemedicine.csv
泰陽中醫診所,24.80637,121.0359595,hsinchu_telemedicine.csv
彭姵綸中醫診所,24.8074606,121.0269481,hsinchu_telemedicine.csv
陳嘉帆中醫診所,24.8352379,121.0141472,hsinchu_telemedicine.csv
誠璞中醫診所,24.8142475,121.0286129,hsinchu_telemedicine.csv
禪中醫診所,24.8140636,121.02885,hsinchu_telemedicine.csv
振心中醫診所,24.8093524,121.0344865,hsinchu_telemedicine.csv
晉醫堂中醫診所,24.8177613,121.0209605,hsinchu_telemedicine.csv
照海中醫診所,24.8069455,121.0308137,hsinchu_telemedicine.csv
景悅中醫診所,24.824493,121.0276965,hsinchu_telemedicine.csv
保安中醫診所,24.9011292,121.0470383,hsinchu_telemedicine.csv
劉坤達中醫診所,24.9013958,121.0436439,hsinchu_telemedicine.csv
毅安中醫診所,24.9036899,121.042739,hsinchu_telemedicine.csv
盧廷圳中醫診所,24.9005372,121.0461804,hsinchu_telemedicine.csv
均安中醫診所,24.8706111,120.9936823,hsinchu_telemedicine.csv
上上中醫診所,24.8713834,120.9953619,hsinchu_telemedicine.csv
芝恩中醫診所,24.8746137,120.9943344,hsinchu_telemedicine.csv
東元醫療社團法人艾微芙診所,24.8047535,121.0425847,hsinchu_telemedicine.csv